[
  {
    "stop_id": 10000802,
    "stop_name": "Hamraborg",
    "stop_lat": 64.111089,
    "stop_lon": -21.908351,
    "location_type": 0
  },
  {
    "stop_id": 10000804,
    "stop_name": "Sunnuhlíð",
    "stop_lat": 64.109082,
    "stop_lon": -21.909596,
    "location_type": 0
  },
  {
    "stop_id": 10000805,
    "stop_name": "Kópavogslaug",
    "stop_lat": 64.109198,
    "stop_lon": -21.917279,
    "location_type": 0
  },
  {
    "stop_id": 10000806,
    "stop_name": "Kársnesskóli",
    "stop_lat": 64.109192,
    "stop_lon": -21.924001,
    "location_type": 0
  },
  {
    "stop_id": 10000807,
    "stop_name": "Kópavör",
    "stop_lat": 64.109299,
    "stop_lon": -21.930667,
    "location_type": 0
  },
  {
    "stop_id": 10000808,
    "stop_name": "Hafnarbraut",
    "stop_lat": 64.111244,
    "stop_lon": -21.935374,
    "location_type": 0
  },
  {
    "stop_id": 10000809,
    "stop_name": "Vesturvör",
    "stop_lat": 64.113604,
    "stop_lon": -21.929884,
    "location_type": 0
  },
  {
    "stop_id": 10000810,
    "stop_name": "Holtagerði",
    "stop_lat": 64.113682,
    "stop_lon": -21.923298,
    "location_type": 0
  },
  {
    "stop_id": 10000811,
    "stop_name": "Bakkahjalli",
    "stop_lat": 64.107374,
    "stop_lon": -21.87409,
    "location_type": 0
  },
  {
    "stop_id": 10000812,
    "stop_name": "Sæból",
    "stop_lat": 64.114526,
    "stop_lon": -21.903531,
    "location_type": 0
  },
  {
    "stop_id": 10000814,
    "stop_name": "Skeljabrekka",
    "stop_lat": 64.114422,
    "stop_lon": -21.899866,
    "location_type": 0
  },
  {
    "stop_id": 10000815,
    "stop_name": "Gul gata",
    "stop_lat": 64.113328,
    "stop_lon": -21.84835,
    "location_type": 0
  },
  {
    "stop_id": 10000817,
    "stop_name": "Kóravegur",
    "stop_lat": 64.085384,
    "stop_lon": -21.819622,
    "location_type": 0
  },
  {
    "stop_id": 10000818,
    "stop_name": "Gul gata",
    "stop_lat": 64.113249,
    "stop_lon": -21.848192,
    "location_type": 0
  },
  {
    "stop_id": 10000819,
    "stop_name": "Víghóll",
    "stop_lat": 64.111758,
    "stop_lon": -21.884427,
    "location_type": 0
  },
  {
    "stop_id": 10000820,
    "stop_name": "MK",
    "stop_lat": 64.110166,
    "stop_lon": -21.89586,
    "location_type": 0
  },
  {
    "stop_id": 10000821,
    "stop_name": "MK",
    "stop_lat": 64.110274,
    "stop_lon": -21.895669,
    "location_type": 0
  },
  {
    "stop_id": 10000822,
    "stop_name": "Kópavogsskóli",
    "stop_lat": 64.110379,
    "stop_lon": -21.900322,
    "location_type": 0
  },
  {
    "stop_id": 10000823,
    "stop_name": "Kóravegur",
    "stop_lat": 64.08531,
    "stop_lon": -21.818631,
    "location_type": 0
  },
  {
    "stop_id": 10000824,
    "stop_name": "Elliðahvammur",
    "stop_lat": 64.087018,
    "stop_lon": -21.812824,
    "location_type": 0
  },
  {
    "stop_id": 10000825,
    "stop_name": "Arnarsmári",
    "stop_lat": 64.099645,
    "stop_lon": -21.904513,
    "location_type": 0
  },
  {
    "stop_id": 10000826,
    "stop_name": "Arnarsmári",
    "stop_lat": 64.099711,
    "stop_lon": -21.903924,
    "location_type": 0
  },
  {
    "stop_id": 10000827,
    "stop_name": "Arnarnesvegur",
    "stop_lat": 64.09869,
    "stop_lon": -21.905116,
    "location_type": 0
  },
  {
    "stop_id": 10000828,
    "stop_name": "Víghóll",
    "stop_lat": 64.11183,
    "stop_lon": -21.884425,
    "location_type": 0
  },
  {
    "stop_id": 10000830,
    "stop_name": "Elliðahvammur",
    "stop_lat": 64.087173,
    "stop_lon": -21.812628,
    "location_type": 0
  },
  {
    "stop_id": 10000831,
    "stop_name": "Lindir",
    "stop_lat": 64.09858,
    "stop_lon": -21.870174,
    "location_type": 0
  },
  {
    "stop_id": 10000832,
    "stop_name": "Grá gata",
    "stop_lat": 64.110889,
    "stop_lon": -21.85211,
    "location_type": 0
  },
  {
    "stop_id": 10000834,
    "stop_name": "Salavegur",
    "stop_lat": 64.0893318657809,
    "stop_lon": -21.8426006419659,
    "location_type": 0
  },
  {
    "stop_id": 10000835,
    "stop_name": "Skógarhjalli",
    "stop_lat": 64.106455,
    "stop_lon": -21.855698,
    "location_type": 0
  },
  {
    "stop_id": 10000836,
    "stop_name": "Skógarhjalli",
    "stop_lat": 64.106595,
    "stop_lon": -21.855849,
    "location_type": 0
  },
  {
    "stop_id": 10000837,
    "stop_name": "Fífuhjalli",
    "stop_lat": 64.107757,
    "stop_lon": -21.860165,
    "location_type": 0
  },
  {
    "stop_id": 10000838,
    "stop_name": "Hjallakirkja",
    "stop_lat": 64.109553,
    "stop_lon": -21.866266,
    "location_type": 0
  },
  {
    "stop_id": 10000839,
    "stop_name": "Grá gata",
    "stop_lat": 64.110901,
    "stop_lon": -21.852318,
    "location_type": 0
  },
  {
    "stop_id": 10000842,
    "stop_name": "Birkigrund",
    "stop_lat": 64.114069,
    "stop_lon": -21.887445,
    "location_type": 0
  },
  {
    "stop_id": 10000843,
    "stop_name": "Birkigrund",
    "stop_lat": 64.1143221890465,
    "stop_lon": -21.8876962017482,
    "location_type": 0
  },
  {
    "stop_id": 10000844,
    "stop_name": "Furugrund",
    "stop_lat": 64.11393,
    "stop_lon": -21.87987,
    "location_type": 0
  },
  {
    "stop_id": 10000845,
    "stop_name": "Furugrund",
    "stop_lat": 64.1141001281269,
    "stop_lon": -21.8799443092546,
    "location_type": 0
  },
  {
    "stop_id": 10000846,
    "stop_name": "Lundarbrekka",
    "stop_lat": 64.113678,
    "stop_lon": -21.872197,
    "location_type": 0
  },
  {
    "stop_id": 10000847,
    "stop_name": "Lundarbrekka",
    "stop_lat": 64.113842,
    "stop_lon": -21.872486,
    "location_type": 0
  },
  {
    "stop_id": 10000848,
    "stop_name": "Þverbrekka",
    "stop_lat": 64.113735,
    "stop_lon": -21.868226,
    "location_type": 0
  },
  {
    "stop_id": 10000849,
    "stop_name": "Þverbrekka",
    "stop_lat": 64.113461,
    "stop_lon": -21.866342,
    "location_type": 0
  },
  {
    "stop_id": 10000850,
    "stop_name": "Álfabrekka",
    "stop_lat": 64.112944,
    "stop_lon": -21.861297,
    "location_type": 0
  },
  {
    "stop_id": 10000851,
    "stop_name": "Álfabrekka",
    "stop_lat": 64.113209,
    "stop_lon": -21.86117,
    "location_type": 0
  },
  {
    "stop_id": 10000852,
    "stop_name": "Efstihjalli",
    "stop_lat": 64.110757,
    "stop_lon": -21.856081,
    "location_type": 0
  },
  {
    "stop_id": 10000853,
    "stop_name": "Efstihjalli",
    "stop_lat": 64.110813,
    "stop_lon": -21.855532,
    "location_type": 0
  },
  {
    "stop_id": 10000854,
    "stop_name": "Kópavogsdalur",
    "stop_lat": 64.107074,
    "stop_lon": -21.905615,
    "location_type": 0
  },
  {
    "stop_id": 10000856,
    "stop_name": "Kópavogsdalur",
    "stop_lat": 64.106197,
    "stop_lon": -21.903764,
    "location_type": 0
  },
  {
    "stop_id": 10000857,
    "stop_name": "Brattabrekka",
    "stop_lat": 64.11,
    "stop_lon": -21.888501,
    "location_type": 0
  },
  {
    "stop_id": 10000858,
    "stop_name": "Brattabrekka",
    "stop_lat": 64.110158,
    "stop_lon": -21.888489,
    "location_type": 0
  },
  {
    "stop_id": 10000859,
    "stop_name": "Kópavogsskóli",
    "stop_lat": 64.110292,
    "stop_lon": -21.899697,
    "location_type": 0
  },
  {
    "stop_id": 10000860,
    "stop_name": "Álfkonuhvarf",
    "stop_lat": 64.090786,
    "stop_lon": -21.808158,
    "location_type": 0
  },
  {
    "stop_id": 10000862,
    "stop_name": "Dalvegur",
    "stop_lat": 64.105858,
    "stop_lon": -21.872156,
    "location_type": 0
  },
  {
    "stop_id": 10000863,
    "stop_name": "Dalvegur",
    "stop_lat": 64.105812,
    "stop_lon": -21.871792,
    "location_type": 0
  },
  {
    "stop_id": 10000864,
    "stop_name": "Smáratorg",
    "stop_lat": 64.10427,
    "stop_lon": -21.879689,
    "location_type": 0
  },
  {
    "stop_id": 10000865,
    "stop_name": "Smáratorg",
    "stop_lat": 64.104185,
    "stop_lon": -21.879448,
    "location_type": 0
  },
  {
    "stop_id": 10000872,
    "stop_name": "Smárar",
    "stop_lat": 64.102285,
    "stop_lon": -21.892145,
    "location_type": 0
  },
  {
    "stop_id": 10000873,
    "stop_name": "Smárar",
    "stop_lat": 64.10207,
    "stop_lon": -21.892387,
    "location_type": 0
  },
  {
    "stop_id": 10000874,
    "stop_name": "Smáralind",
    "stop_lat": 64.102703,
    "stop_lon": -21.886314,
    "location_type": 0
  },
  {
    "stop_id": 10000875,
    "stop_name": "Smáralind",
    "stop_lat": 64.102525,
    "stop_lon": -21.885823,
    "location_type": 0
  },
  {
    "stop_id": 10000876,
    "stop_name": "Lindir",
    "stop_lat": 64.098921,
    "stop_lon": -21.871548,
    "location_type": 0
  },
  {
    "stop_id": 10000880,
    "stop_name": "Salavegur",
    "stop_lat": 64.089366,
    "stop_lon": -21.845248,
    "location_type": 0
  },
  {
    "stop_id": 10000882,
    "stop_name": "Lindarvegur",
    "stop_lat": 64.100825,
    "stop_lon": -21.871459,
    "location_type": 0
  },
  {
    "stop_id": 10000883,
    "stop_name": "Kaldalind",
    "stop_lat": 64.102109,
    "stop_lon": -21.864024,
    "location_type": 0
  },
  {
    "stop_id": 10000884,
    "stop_name": "Iðalind",
    "stop_lat": 64.099474,
    "stop_lon": -21.862353,
    "location_type": 0
  },
  {
    "stop_id": 10000885,
    "stop_name": "Hvammsvegur",
    "stop_lat": 64.096328,
    "stop_lon": -21.858788,
    "location_type": 0
  },
  {
    "stop_id": 10000887,
    "stop_name": "Fensalir",
    "stop_lat": 64.093776,
    "stop_lon": -21.853171,
    "location_type": 0
  },
  {
    "stop_id": 10000889,
    "stop_name": "Kórsalir",
    "stop_lat": 64.09212,
    "stop_lon": -21.846356,
    "location_type": 0
  },
  {
    "stop_id": 10000892,
    "stop_name": "Grænatunga",
    "stop_lat": 64.108302,
    "stop_lon": -21.895524,
    "location_type": 0
  },
  {
    "stop_id": 10000893,
    "stop_name": "Hlíðargarður",
    "stop_lat": 64.107808,
    "stop_lon": -21.901346,
    "location_type": 0
  },
  {
    "stop_id": 10000894,
    "stop_name": "Hrauntunga",
    "stop_lat": 64.108752,
    "stop_lon": -21.890088,
    "location_type": 0
  },
  {
    "stop_id": 10000895,
    "stop_name": "Brekkuhjalli",
    "stop_lat": 64.107587,
    "stop_lon": -21.879616,
    "location_type": 0
  },
  {
    "stop_id": 10000900,
    "stop_name": "Hlíðasmári",
    "stop_lat": 64.097631,
    "stop_lon": -21.891484,
    "location_type": 0
  },
  {
    "stop_id": 10000901,
    "stop_name": "Dalsmári",
    "stop_lat": 64.100015,
    "stop_lon": -21.889215,
    "location_type": 0
  },
  {
    "stop_id": 10000903,
    "stop_name": "Dalsmári",
    "stop_lat": 64.099989,
    "stop_lon": -21.889837,
    "location_type": 0
  },
  {
    "stop_id": 10000904,
    "stop_name": "Hlíðasmári",
    "stop_lat": 64.097616,
    "stop_lon": -21.891752,
    "location_type": 0
  },
  {
    "stop_id": 10000906,
    "stop_name": "Huldubraut",
    "stop_lat": 64.114277,
    "stop_lon": -21.914967,
    "location_type": 0
  },
  {
    "stop_id": 10000907,
    "stop_name": "Hvammsvegur",
    "stop_lat": 64.096463,
    "stop_lon": -21.858742,
    "location_type": 0
  },
  {
    "stop_id": 10000908,
    "stop_name": "Iðalind",
    "stop_lat": 64.098855,
    "stop_lon": -21.86228,
    "location_type": 0
  },
  {
    "stop_id": 10000909,
    "stop_name": "Kaldalind",
    "stop_lat": 64.102217,
    "stop_lon": -21.863889,
    "location_type": 0
  },
  {
    "stop_id": 10000910,
    "stop_name": "Lindarvegur",
    "stop_lat": 64.100794,
    "stop_lon": -21.871763,
    "location_type": 0
  },
  {
    "stop_id": 10000911,
    "stop_name": "Rjúpnasalir",
    "stop_lat": 64.090012,
    "stop_lon": -21.843933,
    "location_type": 0
  },
  {
    "stop_id": 10000917,
    "stop_name": "Digranes",
    "stop_lat": 64.110944,
    "stop_lon": -21.873839,
    "location_type": 0
  },
  {
    "stop_id": 10000918,
    "stop_name": "Hjallakirkja",
    "stop_lat": 64.109514,
    "stop_lon": -21.866139,
    "location_type": 0
  },
  {
    "stop_id": 10000919,
    "stop_name": "Fífuhjalli",
    "stop_lat": 64.107695,
    "stop_lon": -21.860097,
    "location_type": 0
  },
  {
    "stop_id": 10000920,
    "stop_name": "Rjúpnavegur",
    "stop_lat": 64.086819,
    "stop_lon": -21.83374,
    "location_type": 0
  },
  {
    "stop_id": 10000922,
    "stop_name": "Hörðuvallaskóli",
    "stop_lat": 64.084613,
    "stop_lon": -21.825444,
    "location_type": 0
  },
  {
    "stop_id": 10000923,
    "stop_name": "Hörðuvallaskóli",
    "stop_lat": 64.084678,
    "stop_lon": -21.826078,
    "location_type": 0
  },
  {
    "stop_id": 10000925,
    "stop_name": "Rjúpnavegur",
    "stop_lat": 64.086905,
    "stop_lon": -21.833585,
    "location_type": 0
  },
  {
    "stop_id": 10000926,
    "stop_name": "Digranes",
    "stop_lat": 64.110981,
    "stop_lon": -21.873669,
    "location_type": 0
  },
  {
    "stop_id": 10000927,
    "stop_name": "Engihjalli",
    "stop_lat": 64.109807,
    "stop_lon": -21.860418,
    "location_type": 0
  },
  {
    "stop_id": 10000928,
    "stop_name": "Hjalli",
    "stop_lat": 64.110826,
    "stop_lon": -21.862431,
    "location_type": 0
  },
  {
    "stop_id": 10000929,
    "stop_name": "Hlíðargarður",
    "stop_lat": 64.1077307521777,
    "stop_lon": -21.9012575604432,
    "location_type": 0
  },
  {
    "stop_id": 10000930,
    "stop_name": "Grænatunga",
    "stop_lat": 64.1082428971891,
    "stop_lon": -21.8949856142625,
    "location_type": 0
  },
  {
    "stop_id": 10000931,
    "stop_name": "Hrauntunga",
    "stop_lat": 64.1086400526015,
    "stop_lon": -21.8904403899256,
    "location_type": 0
  },
  {
    "stop_id": 10000932,
    "stop_name": "Brekkuhjalli",
    "stop_lat": 64.1075388010915,
    "stop_lon": -21.8795335956611,
    "location_type": 0
  },
  {
    "stop_id": 10000933,
    "stop_name": "Bakkahjalli",
    "stop_lat": 64.1073332858159,
    "stop_lon": -21.8740787033099,
    "location_type": 0
  },
  {
    "stop_id": 10000936,
    "stop_name": "Engihjalli",
    "stop_lat": 64.1097074496591,
    "stop_lon": -21.860406318069,
    "location_type": 0
  },
  {
    "stop_id": 10000937,
    "stop_name": "Sæból",
    "stop_lat": 64.1147151489743,
    "stop_lon": -21.9035922496775,
    "location_type": 0
  },
  {
    "stop_id": 10000938,
    "stop_name": "Huldubraut",
    "stop_lat": 64.114436747609,
    "stop_lon": -21.915096355604,
    "location_type": 0
  },
  {
    "stop_id": 10000939,
    "stop_name": "Holtagerði",
    "stop_lat": 64.1138108977218,
    "stop_lon": -21.9233745698796,
    "location_type": 0
  },
  {
    "stop_id": 10000940,
    "stop_name": "Vesturvör",
    "stop_lat": 64.1137321861171,
    "stop_lon": -21.9293682771579,
    "location_type": 0
  },
  {
    "stop_id": 10000941,
    "stop_name": "Hafnarbraut",
    "stop_lat": 64.1110764334112,
    "stop_lon": -21.9356735893651,
    "location_type": 0
  },
  {
    "stop_id": 10000942,
    "stop_name": "Kópavör",
    "stop_lat": 64.1092386222099,
    "stop_lon": -21.931263789341,
    "location_type": 0
  },
  {
    "stop_id": 10000943,
    "stop_name": "Kársnesskóli",
    "stop_lat": 64.1091270432019,
    "stop_lon": -21.9242167724833,
    "location_type": 0
  },
  {
    "stop_id": 10000944,
    "stop_name": "Kópavogslaug",
    "stop_lat": 64.1090471314352,
    "stop_lon": -21.9172420900144,
    "location_type": 0
  },
  {
    "stop_id": 10000945,
    "stop_name": "Álfkonuhvarf",
    "stop_lat": 64.090774,
    "stop_lon": -21.807935,
    "location_type": 0
  },
  {
    "stop_id": 10000946,
    "stop_name": "Álfhóll",
    "stop_lat": 64.111428,
    "stop_lon": -21.872992,
    "location_type": 0
  },
  {
    "stop_id": 10000948,
    "stop_name": "Lundur",
    "stop_lat": 64.114587,
    "stop_lon": -21.89492,
    "location_type": 0
  },
  {
    "stop_id": 10000949,
    "stop_name": "Lundur",
    "stop_lat": 64.1148053730673,
    "stop_lon": -21.8950634999233,
    "location_type": 0
  },
  {
    "stop_id": 10000950,
    "stop_name": "Vallakór",
    "stop_lat": 64.0847611525669,
    "stop_lon": -21.8202757765777,
    "location_type": 0
  },
  {
    "stop_id": 10000951,
    "stop_name": "Boðaþing",
    "stop_lat": 64.082119,
    "stop_lon": -21.817871,
    "location_type": 0
  },
  {
    "stop_id": 10000953,
    "stop_name": "Víkurhvarf",
    "stop_lat": 64.0927826838478,
    "stop_lon": -21.8094080550478,
    "location_type": 0
  },
  {
    "stop_id": 10000954,
    "stop_name": "Ögurhvarf",
    "stop_lat": 64.096425,
    "stop_lon": -21.805488,
    "location_type": 0
  },
  {
    "stop_id": 10000955,
    "stop_name": "Ögurhvarf",
    "stop_lat": 64.09653,
    "stop_lon": -21.80577,
    "location_type": 0
  },
  {
    "stop_id": 10000956,
    "stop_name": "Víkurhvarf",
    "stop_lat": 64.093697,
    "stop_lon": -21.808651,
    "location_type": 0
  },
  {
    "stop_id": 10000957,
    "stop_name": "Dalaþing",
    "stop_lat": 64.08076,
    "stop_lon": -21.813769,
    "location_type": 0
  },
  {
    "stop_id": 10000961,
    "stop_name": "Álfhóll",
    "stop_lat": 64.1113109279616,
    "stop_lon": -21.8712193283921,
    "location_type": 0
  },
  {
    "stop_id": 10000962,
    "stop_name": "Hjalli",
    "stop_lat": 64.1111001509471,
    "stop_lon": -21.865524664794,
    "location_type": 0
  },
  {
    "stop_id": 10000963,
    "stop_name": "Sunnuhlíð",
    "stop_lat": 64.1089980214091,
    "stop_lon": -21.9095188983322,
    "location_type": 0
  },
  {
    "stop_id": 10000964,
    "stop_name": "Lindakirkja",
    "stop_lat": 64.0943230244082,
    "stop_lon": -21.8617431163278,
    "location_type": 0
  },
  {
    "stop_id": 10000965,
    "stop_name": "Lindakirkja",
    "stop_lat": 64.0944757904809,
    "stop_lon": -21.8616214526045,
    "location_type": 0
  },
  {
    "stop_id": 10000966,
    "stop_name": "Salaskóli",
    "stop_lat": 64.0896855104562,
    "stop_lon": -21.8549341473963,
    "location_type": 0
  },
  {
    "stop_id": 10000967,
    "stop_name": "Salaskóli",
    "stop_lat": 64.0898393254196,
    "stop_lon": -21.8547591189958,
    "location_type": 0
  },
  {
    "stop_id": 10000968,
    "stop_name": "Rjúpnasalir",
    "stop_lat": 64.0901261552729,
    "stop_lon": -21.8436348169245,
    "location_type": 0
  },
  {
    "stop_id": 10000969,
    "stop_name": "Kórsalir",
    "stop_lat": 64.0922066046754,
    "stop_lon": -21.8463327277251,
    "location_type": 0
  },
  {
    "stop_id": 10000970,
    "stop_name": "Fensalir",
    "stop_lat": 64.0939306587926,
    "stop_lon": -21.8531851724621,
    "location_type": 0
  },
  {
    "stop_id": 10010802,
    "stop_name": "Hamraborg A",
    "stop_lat": 64.1116425433607,
    "stop_lon": -21.908605556863073,
    "location_type": 0
  },
  {
    "stop_id": 10020802,
    "stop_name": "Hamraborg B",
    "stop_lat": 64.11165829999837,
    "stop_lon": -21.908316860940364,
    "location_type": 0
  },
  {
    "stop_id": 10030802,
    "stop_name": "Hamraborg C",
    "stop_lat": 64.11092169362851,
    "stop_lon": -21.907946977592374,
    "location_type": 0
  },
  {
    "stop_id": 10040802,
    "stop_name": "Hamraborg D",
    "stop_lat": 64.1110634961011,
    "stop_lon": -21.907144056628127,
    "location_type": 0
  },
  {
    "stop_id": 11000100,
    "stop_name": "Grænamýri",
    "stop_lat": 64.146191,
    "stop_lon": -21.977659,
    "location_type": 0
  },
  {
    "stop_id": 11000101,
    "stop_name": "Skerjabraut",
    "stop_lat": 64.148336,
    "stop_lon": -21.98321,
    "location_type": 0
  },
  {
    "stop_id": 11000102,
    "stop_name": "Eiðistorg",
    "stop_lat": 64.150701,
    "stop_lon": -21.987077,
    "location_type": 0
  },
  {
    "stop_id": 11000103,
    "stop_name": "Gróttuvöllur",
    "stop_lat": 64.149749,
    "stop_lon": -21.994053,
    "location_type": 0
  },
  {
    "stop_id": 11000104,
    "stop_name": "Bakkavör",
    "stop_lat": 64.151323,
    "stop_lon": -22.002626,
    "location_type": 0
  },
  {
    "stop_id": 11000105,
    "stop_name": "Miðbraut",
    "stop_lat": 64.153259,
    "stop_lon": -22.004812,
    "location_type": 0
  },
  {
    "stop_id": 11000106,
    "stop_name": "Hæðarbraut",
    "stop_lat": 64.155473,
    "stop_lon": -22.003511,
    "location_type": 0
  },
  {
    "stop_id": 11000107,
    "stop_name": "Hofgarðar",
    "stop_lat": 64.15764,
    "stop_lon": -22.001297,
    "location_type": 0
  },
  {
    "stop_id": 11000108,
    "stop_name": "Vesturströnd",
    "stop_lat": 64.157636,
    "stop_lon": -21.99257,
    "location_type": 0
  },
  {
    "stop_id": 11000109,
    "stop_name": "Fornaströnd",
    "stop_lat": 64.154798,
    "stop_lon": -21.986627,
    "location_type": 0
  },
  {
    "stop_id": 11000110,
    "stop_name": "Austurströnd",
    "stop_lat": 64.152592,
    "stop_lon": -21.985947,
    "location_type": 0
  },
  {
    "stop_id": 11000111,
    "stop_name": "Eiðistorg",
    "stop_lat": 64.150387,
    "stop_lon": -21.9861,
    "location_type": 0
  },
  {
    "stop_id": 11000112,
    "stop_name": "Skerjabraut",
    "stop_lat": 64.148036,
    "stop_lon": -21.982981,
    "location_type": 0
  },
  {
    "stop_id": 11000113,
    "stop_name": "Grænamýri",
    "stop_lat": 64.146087,
    "stop_lon": -21.977692,
    "location_type": 0
  },
  {
    "stop_id": 11000147,
    "stop_name": "Barðaströnd",
    "stop_lat": 64.156782,
    "stop_lon": -21.988204,
    "location_type": 0
  },
  {
    "stop_id": 13001201,
    "stop_name": "Arnarneshæð",
    "stop_lat": 64.099867,
    "stop_lon": -21.916849,
    "location_type": 0
  },
  {
    "stop_id": 13001202,
    "stop_name": "Akrar",
    "stop_lat": 64.099335,
    "stop_lon": -21.913226,
    "location_type": 0
  },
  {
    "stop_id": 13001204,
    "stop_name": "Akrar",
    "stop_lat": 64.099529,
    "stop_lon": -21.912902,
    "location_type": 0
  },
  {
    "stop_id": 13001206,
    "stop_name": "Sjávargrund",
    "stop_lat": 64.091965,
    "stop_lon": -21.929768,
    "location_type": 0
  },
  {
    "stop_id": 13001207,
    "stop_name": "Arnarnesvegur",
    "stop_lat": 64.098383,
    "stop_lon": -21.903811,
    "location_type": 0
  },
  {
    "stop_id": 13001208,
    "stop_name": "Reynilundur",
    "stop_lat": 64.085651,
    "stop_lon": -21.909578,
    "location_type": 0
  },
  {
    "stop_id": 13001209,
    "stop_name": "Reynilundur",
    "stop_lat": 64.0858,
    "stop_lon": -21.909279,
    "location_type": 0
  },
  {
    "stop_id": 13001210,
    "stop_name": "Hæðarbyggð",
    "stop_lat": 64.088235,
    "stop_lon": -21.907285,
    "location_type": 0
  },
  {
    "stop_id": 13001211,
    "stop_name": "Búðir",
    "stop_lat": 64.089627,
    "stop_lon": -21.904301,
    "location_type": 0
  },
  {
    "stop_id": 13001212,
    "stop_name": "Hæðarbyggð",
    "stop_lat": 64.088219,
    "stop_lon": -21.907533,
    "location_type": 0
  },
  {
    "stop_id": 13001218,
    "stop_name": "Vídalínskirkja",
    "stop_lat": 64.086775,
    "stop_lon": -21.916422,
    "location_type": 0
  },
  {
    "stop_id": 13001219,
    "stop_name": "Garðatorg",
    "stop_lat": 64.087861209459,
    "stop_lon": -21.92007600127,
    "location_type": 0
  },
  {
    "stop_id": 13001222,
    "stop_name": "FG",
    "stop_lat": 64.092528,
    "stop_lon": -21.902847,
    "location_type": 0
  },
  {
    "stop_id": 13001223,
    "stop_name": "Blómahæð",
    "stop_lat": 64.096422,
    "stop_lon": -21.902784,
    "location_type": 0
  },
  {
    "stop_id": 13001224,
    "stop_name": "Búðir",
    "stop_lat": 64.08958,
    "stop_lon": -21.904583,
    "location_type": 0
  },
  {
    "stop_id": 13001225,
    "stop_name": "Blómahæð",
    "stop_lat": 64.09602,
    "stop_lon": -21.90212,
    "location_type": 0
  },
  {
    "stop_id": 13001226,
    "stop_name": "FG",
    "stop_lat": 64.092585,
    "stop_lon": -21.903221,
    "location_type": 0
  },
  {
    "stop_id": 13001233,
    "stop_name": "Garðahraun",
    "stop_lat": 64.077515,
    "stop_lon": -21.929596,
    "location_type": 0
  },
  {
    "stop_id": 13001234,
    "stop_name": "Línakur",
    "stop_lat": 64.0979809046859,
    "stop_lon": -21.9071613098249,
    "location_type": 0
  },
  {
    "stop_id": 13001300,
    "stop_name": "Ásgarður A",
    "stop_lat": 64.089679,
    "stop_lon": -21.929797,
    "location_type": 0
  },
  {
    "stop_id": 13001301,
    "stop_name": "Arnarás",
    "stop_lat": 64.09075,
    "stop_lon": -21.942956,
    "location_type": 0
  },
  {
    "stop_id": 13001302,
    "stop_name": "Birkiás",
    "stop_lat": 64.088076,
    "stop_lon": -21.940529,
    "location_type": 0
  },
  {
    "stop_id": 13001303,
    "stop_name": "Brekkuás",
    "stop_lat": 64.086973,
    "stop_lon": -21.942166,
    "location_type": 0
  },
  {
    "stop_id": 13001304,
    "stop_name": "Hraunsholtsbraut",
    "stop_lat": 64.085691,
    "stop_lon": -21.950248,
    "location_type": 0
  },
  {
    "stop_id": 13001305,
    "stop_name": "Herjólfsbraut",
    "stop_lat": 64.084713,
    "stop_lon": -21.966145,
    "location_type": 0
  },
  {
    "stop_id": 13001306,
    "stop_name": "Garðaholtsvegur",
    "stop_lat": 64.089246,
    "stop_lon": -21.982334,
    "location_type": 0
  },
  {
    "stop_id": 13001322,
    "stop_name": "Gálgahraun",
    "stop_lat": 64.084827,
    "stop_lon": -21.958036,
    "location_type": 0
  },
  {
    "stop_id": 13001323,
    "stop_name": "Gálgahraun",
    "stop_lat": 64.084719,
    "stop_lon": -21.957896,
    "location_type": 0
  },
  {
    "stop_id": 13001328,
    "stop_name": "Garðaholtsvegur",
    "stop_lat": 64.088769,
    "stop_lon": -21.981235,
    "location_type": 0
  },
  {
    "stop_id": 13001329,
    "stop_name": "Herjólfsbraut",
    "stop_lat": 64.08481,
    "stop_lon": -21.967695,
    "location_type": 0
  },
  {
    "stop_id": 13001330,
    "stop_name": "Sjáland",
    "stop_lat": 64.091666,
    "stop_lon": -21.942918,
    "location_type": 0
  },
  {
    "stop_id": 13001333,
    "stop_name": "Sjáland",
    "stop_lat": 64.09182,
    "stop_lon": -21.942956,
    "location_type": 0
  },
  {
    "stop_id": 13001334,
    "stop_name": "Garðatorg",
    "stop_lat": 64.08765,
    "stop_lon": -21.91995,
    "location_type": 0
  },
  {
    "stop_id": 13001335,
    "stop_name": "Vídalínskirkja",
    "stop_lat": 64.086336,
    "stop_lon": -21.915694,
    "location_type": 0
  },
  {
    "stop_id": 13001336,
    "stop_name": "Sjávargrund",
    "stop_lat": 64.092021,
    "stop_lon": -21.929626,
    "location_type": 0
  },
  {
    "stop_id": 13001337,
    "stop_name": "Asparlundur",
    "stop_lat": 64.084208,
    "stop_lon": -21.904143,
    "location_type": 0
  },
  {
    "stop_id": 13001339,
    "stop_name": "Asparlundur",
    "stop_lat": 64.084172,
    "stop_lon": -21.902866,
    "location_type": 0
  },
  {
    "stop_id": 13001343,
    "stop_name": "Suðurhraun",
    "stop_lat": 64.077767,
    "stop_lon": -21.926526,
    "location_type": 0
  },
  {
    "stop_id": 13001344,
    "stop_name": "Austurhraun",
    "stop_lat": 64.076161,
    "stop_lon": -21.922743,
    "location_type": 0
  },
  {
    "stop_id": 13001345,
    "stop_name": "Miðhraun",
    "stop_lat": 64.076783,
    "stop_lon": -21.918972,
    "location_type": 0
  },
  {
    "stop_id": 13001346,
    "stop_name": "Hraun",
    "stop_lat": 64.078026,
    "stop_lon": -21.914426,
    "location_type": 0
  },
  {
    "stop_id": 13001347,
    "stop_name": "Hraun",
    "stop_lat": 64.078047,
    "stop_lon": -21.914549,
    "location_type": 0
  },
  {
    "stop_id": 13001348,
    "stop_name": "Miðhraun",
    "stop_lat": 64.076844,
    "stop_lon": -21.919126,
    "location_type": 0
  },
  {
    "stop_id": 13001349,
    "stop_name": "Austurhraun",
    "stop_lat": 64.076222,
    "stop_lon": -21.922933,
    "location_type": 0
  },
  {
    "stop_id": 13001350,
    "stop_name": "Suðurhraun",
    "stop_lat": 64.077831,
    "stop_lon": -21.926387,
    "location_type": 0
  },
  {
    "stop_id": 13001351,
    "stop_name": "Hraunsholtsbraut",
    "stop_lat": 64.085576,
    "stop_lon": -21.950153,
    "location_type": 0
  },
  {
    "stop_id": 13001352,
    "stop_name": "Brekkuás",
    "stop_lat": 64.086953,
    "stop_lon": -21.941986,
    "location_type": 0
  },
  {
    "stop_id": 13001353,
    "stop_name": "Birkiás",
    "stop_lat": 64.088124,
    "stop_lon": -21.940319,
    "location_type": 0
  },
  {
    "stop_id": 13001354,
    "stop_name": "Arnarás",
    "stop_lat": 64.090879,
    "stop_lon": -21.942775,
    "location_type": 0
  },
  {
    "stop_id": 13001355,
    "stop_name": "Sjálandsskóli",
    "stop_lat": 64.092082,
    "stop_lon": -21.936259,
    "location_type": 0
  },
  {
    "stop_id": 13001356,
    "stop_name": "Sjálandsskóli",
    "stop_lat": 64.092176,
    "stop_lon": -21.93456,
    "location_type": 0
  },
  {
    "stop_id": 13001361,
    "stop_name": "Kauptún",
    "stop_lat": 64.074007,
    "stop_lon": -21.914028,
    "location_type": 0
  },
  {
    "stop_id": 13001362,
    "stop_name": "Nónhæð",
    "stop_lat": 64.096512,
    "stop_lon": -21.894143,
    "location_type": 0
  },
  {
    "stop_id": 13001504,
    "stop_name": "Ásar",
    "stop_lat": 64.086284,
    "stop_lon": -21.937748,
    "location_type": 0
  },
  {
    "stop_id": 13001506,
    "stop_name": "Hegranes",
    "stop_lat": 64.095163,
    "stop_lon": -21.922373,
    "location_type": 0
  },
  {
    "stop_id": 13001507,
    "stop_name": "Arnarneshæð",
    "stop_lat": 64.099366,
    "stop_lon": -21.914992,
    "location_type": 0
  },
  {
    "stop_id": 13001523,
    "stop_name": "Hegranes",
    "stop_lat": 64.096185,
    "stop_lon": -21.921988,
    "location_type": 0
  },
  {
    "stop_id": 13001525,
    "stop_name": "Ásar",
    "stop_lat": 64.086355,
    "stop_lon": -21.938269,
    "location_type": 0
  },
  {
    "stop_id": 13001584,
    "stop_name": "Garðahraun",
    "stop_lat": 64.077452,
    "stop_lon": -21.92963,
    "location_type": 0
  },
  {
    "stop_id": 13001586,
    "stop_name": "Vífilsstaðir",
    "stop_lat": 64.082286,
    "stop_lon": -21.890105,
    "location_type": 0
  },
  {
    "stop_id": 13001587,
    "stop_name": "Vífilsstaðir",
    "stop_lat": 64.083042,
    "stop_lon": -21.896583,
    "location_type": 0
  },
  {
    "stop_id": 13001588,
    "stop_name": "Ásgarður B",
    "stop_lat": 64.0902770354474,
    "stop_lon": -21.9294653094709,
    "location_type": 0
  },
  {
    "stop_id": 13001589,
    "stop_name": "Ásgarður C",
    "stop_lat": 64.0901120054328,
    "stop_lon": -21.9308091387264,
    "location_type": 0
  },
  {
    "stop_id": 13001590,
    "stop_name": "Urriðaholtsstræti",
    "stop_lat": 64.0735401248068,
    "stop_lon": -21.9028267489091,
    "location_type": 0
  },
  {
    "stop_id": 13001591,
    "stop_name": "Urriðaholtsskóli",
    "stop_lat": 64.0684342822155,
    "stop_lon": -21.8987324297482,
    "location_type": 0
  },
  {
    "stop_id": 13001592,
    "stop_name": "Holtsvegur",
    "stop_lat": 64.0689895586691,
    "stop_lon": -21.9042058920442,
    "location_type": 0
  },
  {
    "stop_id": 13001593,
    "stop_name": "Náttúrufræðistofnun Íslands",
    "stop_lat": 64.073927608902,
    "stop_lon": -21.907433737127,
    "location_type": 0
  },
  {
    "stop_id": 13001594,
    "stop_name": "Íþróttahúsið Miðgarður",
    "stop_lat": 64.0862407280822,
    "stop_lon": -21.8880968642223,
    "location_type": 0
  },
  {
    "stop_id": 14001500,
    "stop_name": "Fjörður",
    "stop_lat": 64.067849,
    "stop_lon": -21.957284,
    "location_type": 0
  },
  {
    "stop_id": 14001501,
    "stop_name": "Hellisgerði",
    "stop_lat": 64.072042,
    "stop_lon": -21.95451,
    "location_type": 0
  },
  {
    "stop_id": 14001502,
    "stop_name": "Hraunbrún",
    "stop_lat": 64.075941,
    "stop_lon": -21.951317,
    "location_type": 0
  },
  {
    "stop_id": 14001503,
    "stop_name": "Norðurbær",
    "stop_lat": 64.079737,
    "stop_lon": -21.948809,
    "location_type": 0
  },
  {
    "stop_id": 14001504,
    "stop_name": "Sundhöll Hafnarfjarðar",
    "stop_lat": 64.072402,
    "stop_lon": -21.966206,
    "location_type": 0
  },
  {
    "stop_id": 14001506,
    "stop_name": "Skjólvangur",
    "stop_lat": 64.077295,
    "stop_lon": -21.965835,
    "location_type": 0
  },
  {
    "stop_id": 14001512,
    "stop_name": "Hjallabraut",
    "stop_lat": 64.078802,
    "stop_lon": -21.954223,
    "location_type": 0
  },
  {
    "stop_id": 14001514,
    "stop_name": "Iðnskólinn",
    "stop_lat": 64.075418,
    "stop_lon": -21.94595,
    "location_type": 0
  },
  {
    "stop_id": 14001515,
    "stop_name": "Kaplakriki",
    "stop_lat": 64.0766171163806,
    "stop_lon": -21.9376036338494,
    "location_type": 0
  },
  {
    "stop_id": 14001520,
    "stop_name": "Lækjarskóli",
    "stop_lat": 64.0670160143399,
    "stop_lon": -21.93988787921,
    "location_type": 0
  },
  {
    "stop_id": 14001523,
    "stop_name": "Kaldárselsvegur",
    "stop_lat": 64.0587240755895,
    "stop_lon": -21.9360584149224,
    "location_type": 0
  },
  {
    "stop_id": 14001525,
    "stop_name": "Goðatorg",
    "stop_lat": 64.057963,
    "stop_lon": -21.949083,
    "location_type": 0
  },
  {
    "stop_id": 14001526,
    "stop_name": "Norðurbær",
    "stop_lat": 64.079085,
    "stop_lon": -21.94997,
    "location_type": 0
  },
  {
    "stop_id": 14001527,
    "stop_name": "Hraunbrún",
    "stop_lat": 64.074785,
    "stop_lon": -21.952547,
    "location_type": 0
  },
  {
    "stop_id": 14001528,
    "stop_name": "Hellisgerði",
    "stop_lat": 64.071812,
    "stop_lon": -21.955183,
    "location_type": 0
  },
  {
    "stop_id": 14001535,
    "stop_name": "Víðivangur",
    "stop_lat": 64.078842,
    "stop_lon": -21.963587,
    "location_type": 0
  },
  {
    "stop_id": 14001536,
    "stop_name": "Miðvangur",
    "stop_lat": 64.07927,
    "stop_lon": -21.958053,
    "location_type": 0
  },
  {
    "stop_id": 14001538,
    "stop_name": "Mávahraun",
    "stop_lat": 64.074665,
    "stop_lon": -21.942402,
    "location_type": 0
  },
  {
    "stop_id": 14001539,
    "stop_name": "Álfaskeið",
    "stop_lat": 64.071306,
    "stop_lon": -21.941305,
    "location_type": 0
  },
  {
    "stop_id": 14001540,
    "stop_name": "Sólvangur",
    "stop_lat": 64.068839,
    "stop_lon": -21.939605,
    "location_type": 0
  },
  {
    "stop_id": 14001541,
    "stop_name": "Flensborg",
    "stop_lat": 64.064381,
    "stop_lon": -21.947992,
    "location_type": 0
  },
  {
    "stop_id": 14001542,
    "stop_name": "Flensborg",
    "stop_lat": 64.064357,
    "stop_lon": -21.948489,
    "location_type": 0
  },
  {
    "stop_id": 14001543,
    "stop_name": "St. Jósefsspítali",
    "stop_lat": 64.062707,
    "stop_lon": -21.953896,
    "location_type": 0
  },
  {
    "stop_id": 14001544,
    "stop_name": "Suðurbæjarlaug",
    "stop_lat": 64.060473,
    "stop_lon": -21.962542,
    "location_type": 0
  },
  {
    "stop_id": 14001545,
    "stop_name": "Íshús Hafnarfjarðar",
    "stop_lat": 64.062054,
    "stop_lon": -21.961625,
    "location_type": 0
  },
  {
    "stop_id": 14001546,
    "stop_name": "Víkingaþorpið",
    "stop_lat": 64.065841,
    "stop_lon": -21.956042,
    "location_type": 0
  },
  {
    "stop_id": 14001547,
    "stop_name": "Ásvallalaug",
    "stop_lat": 64.052061,
    "stop_lon": -21.974783,
    "location_type": 0
  },
  {
    "stop_id": 14001551,
    "stop_name": "Miðvangur",
    "stop_lat": 64.079562,
    "stop_lon": -21.958359,
    "location_type": 0
  },
  {
    "stop_id": 14001552,
    "stop_name": "Víðivangur",
    "stop_lat": 64.079396,
    "stop_lon": -21.962947,
    "location_type": 0
  },
  {
    "stop_id": 14001561,
    "stop_name": "Lækjargata",
    "stop_lat": 64.067288,
    "stop_lon": -21.947194,
    "location_type": 0
  },
  {
    "stop_id": 14001567,
    "stop_name": "Akurholt",
    "stop_lat": 64.055659,
    "stop_lon": -21.979984,
    "location_type": 0
  },
  {
    "stop_id": 14001568,
    "stop_name": "Bæjarholt",
    "stop_lat": 64.05701,
    "stop_lon": -21.982707,
    "location_type": 0
  },
  {
    "stop_id": 14001580,
    "stop_name": "St. Jósefsspítali",
    "stop_lat": 64.062611,
    "stop_lon": -21.953708,
    "location_type": 0
  },
  {
    "stop_id": 14001583,
    "stop_name": "Sólvangur",
    "stop_lat": 64.0689,
    "stop_lon": -21.939511,
    "location_type": 0
  },
  {
    "stop_id": 14001587,
    "stop_name": "Suðurbæjarlaug",
    "stop_lat": 64.060403,
    "stop_lon": -21.962432,
    "location_type": 0
  },
  {
    "stop_id": 14001588,
    "stop_name": "Hlíðarberg",
    "stop_lat": 64.066405,
    "stop_lon": -21.935842,
    "location_type": 0
  },
  {
    "stop_id": 14001589,
    "stop_name": "Birkihlíð",
    "stop_lat": 64.062642,
    "stop_lon": -21.93457,
    "location_type": 0
  },
  {
    "stop_id": 14001596,
    "stop_name": "Hlíðarberg",
    "stop_lat": 64.067181,
    "stop_lon": -21.936016,
    "location_type": 0
  },
  {
    "stop_id": 14001597,
    "stop_name": "Lækjargata",
    "stop_lat": 64.067353,
    "stop_lon": -21.948527,
    "location_type": 0
  },
  {
    "stop_id": 14001600,
    "stop_name": "Víkingaþorpið",
    "stop_lat": 64.065194,
    "stop_lon": -21.956773,
    "location_type": 0
  },
  {
    "stop_id": 14001601,
    "stop_name": "Íshús Hafnarfjarðar",
    "stop_lat": 64.062178,
    "stop_lon": -21.96172,
    "location_type": 0
  },
  {
    "stop_id": 14001602,
    "stop_name": "Kirkjuvellir",
    "stop_lat": 64.050653,
    "stop_lon": -21.982217,
    "location_type": 0
  },
  {
    "stop_id": 14001603,
    "stop_name": "Daggarvellir",
    "stop_lat": 64.048205,
    "stop_lon": -21.980835,
    "location_type": 0
  },
  {
    "stop_id": 14001604,
    "stop_name": "Hraunvallaskóli",
    "stop_lat": 64.045543255643,
    "stop_lon": -21.979178128346,
    "location_type": 0
  },
  {
    "stop_id": 14001605,
    "stop_name": "Haukahús",
    "stop_lat": 64.053245,
    "stop_lon": -21.971125,
    "location_type": 0
  },
  {
    "stop_id": 14001607,
    "stop_name": "Ásland I",
    "stop_lat": 64.056631,
    "stop_lon": -21.957028,
    "location_type": 0
  },
  {
    "stop_id": 14001608,
    "stop_name": "Ásland II",
    "stop_lat": 64.055725,
    "stop_lon": -21.945865,
    "location_type": 0
  },
  {
    "stop_id": 14001609,
    "stop_name": "Ásland I",
    "stop_lat": 64.056765,
    "stop_lon": -21.956984,
    "location_type": 0
  },
  {
    "stop_id": 14001610,
    "stop_name": "Ástjörn",
    "stop_lat": 64.054939,
    "stop_lon": -21.965701,
    "location_type": 0
  },
  {
    "stop_id": 14001611,
    "stop_name": "Óla Run tún",
    "stop_lat": 64.057241,
    "stop_lon": -21.965128,
    "location_type": 0
  },
  {
    "stop_id": 14001612,
    "stop_name": "Haukahús",
    "stop_lat": 64.053334,
    "stop_lon": -21.971691,
    "location_type": 0
  },
  {
    "stop_id": 14001613,
    "stop_name": "Hraunvallaskóli",
    "stop_lat": 64.045546,
    "stop_lon": -21.979055,
    "location_type": 0
  },
  {
    "stop_id": 14001614,
    "stop_name": "Daggarvellir",
    "stop_lat": 64.048361,
    "stop_lon": -21.980808,
    "location_type": 0
  },
  {
    "stop_id": 14001615,
    "stop_name": "Kirkjuvellir",
    "stop_lat": 64.050623,
    "stop_lon": -21.981941,
    "location_type": 0
  },
  {
    "stop_id": 14001616,
    "stop_name": "Ásvallalaug",
    "stop_lat": 64.052789,
    "stop_lon": -21.975244,
    "location_type": 0
  },
  {
    "stop_id": 14001617,
    "stop_name": "Kirkjutorg",
    "stop_lat": 64.051702,
    "stop_lon": -21.980002,
    "location_type": 0
  },
  {
    "stop_id": 14001618,
    "stop_name": "Kirkjutorg",
    "stop_lat": 64.051711,
    "stop_lon": -21.979893,
    "location_type": 0
  },
  {
    "stop_id": 14001619,
    "stop_name": "Ásvallalaug",
    "stop_lat": 64.05275,
    "stop_lon": -21.974952,
    "location_type": 0
  },
  {
    "stop_id": 14001620,
    "stop_name": "Óla Run tún",
    "stop_lat": 64.057287,
    "stop_lon": -21.965357,
    "location_type": 0
  },
  {
    "stop_id": 14001626,
    "stop_name": "Grænakinn",
    "stop_lat": 64.066051,
    "stop_lon": -21.944889,
    "location_type": 0
  },
  {
    "stop_id": 14001627,
    "stop_name": "Álfaskeið",
    "stop_lat": 64.071382,
    "stop_lon": -21.941172,
    "location_type": 0
  },
  {
    "stop_id": 14001634,
    "stop_name": "Grænakinn",
    "stop_lat": 64.066075,
    "stop_lon": -21.944603999999998,
    "location_type": 0
  },
  {
    "stop_id": 14001638,
    "stop_name": "Hnoðravellir",
    "stop_lat": 64.043228,
    "stop_lon": -21.96752,
    "location_type": 0
  },
  {
    "stop_id": 14001639,
    "stop_name": "Glitvellir",
    "stop_lat": 64.042419,
    "stop_lon": -21.975853999999998,
    "location_type": 0
  },
  {
    "stop_id": 14001640,
    "stop_name": "Hvannavellir",
    "stop_lat": 64.043017,
    "stop_lon": -21.97781,
    "location_type": 0
  },
  {
    "stop_id": 14001641,
    "stop_name": "Flatahraun",
    "stop_lat": 64.075742,
    "stop_lon": -21.941716,
    "location_type": 0
  },
  {
    "stop_id": 14001646,
    "stop_name": "Flatahraun",
    "stop_lat": 64.075714,
    "stop_lon": -21.943929,
    "location_type": 0
  },
  {
    "stop_id": 14001647,
    "stop_name": "Hvannavellir",
    "stop_lat": 64.043003,
    "stop_lon": -21.977966,
    "location_type": 0
  },
  {
    "stop_id": 14001648,
    "stop_name": "Glitvellir",
    "stop_lat": 64.04234,
    "stop_lon": -21.97579,
    "location_type": 0
  },
  {
    "stop_id": 14001649,
    "stop_name": "Hnoðravellir",
    "stop_lat": 64.043163,
    "stop_lon": -21.967206,
    "location_type": 0
  },
  {
    "stop_id": 14001650,
    "stop_name": "Brekkutröð",
    "stop_lat": 64.060387,
    "stop_lon": -21.978211,
    "location_type": 0
  },
  {
    "stop_id": 14001653,
    "stop_name": "Brekkutröð",
    "stop_lat": 64.060473,
    "stop_lon": -21.978384,
    "location_type": 0
  },
  {
    "stop_id": 14001660,
    "stop_name": "Akurvellir",
    "stop_lat": 64.049266,
    "stop_lon": -21.983866,
    "location_type": 0
  },
  {
    "stop_id": 14001661,
    "stop_name": "Akurvellir",
    "stop_lat": 64.049251,
    "stop_lon": -21.983721,
    "location_type": 0
  },
  {
    "stop_id": 14001663,
    "stop_name": "Kaplakriki",
    "stop_lat": 64.0769446527884,
    "stop_lon": -21.9374269861653,
    "location_type": 0
  },
  {
    "stop_id": 14001665,
    "stop_name": "Skjólvangur",
    "stop_lat": 64.077027,
    "stop_lon": -21.966447,
    "location_type": 0
  },
  {
    "stop_id": 14001666,
    "stop_name": "Sundhöll Hafnarfjarðar",
    "stop_lat": 64.072377,
    "stop_lon": -21.966695,
    "location_type": 0
  },
  {
    "stop_id": 14001667,
    "stop_name": "Norðurbakki",
    "stop_lat": 64.069827,
    "stop_lon": -21.962006,
    "location_type": 0
  },
  {
    "stop_id": 14001668,
    "stop_name": "Norðurbakki",
    "stop_lat": 64.069956,
    "stop_lon": -21.96178,
    "location_type": 0
  },
  {
    "stop_id": 14001669,
    "stop_name": "Lækjargata",
    "stop_lat": 64.067258,
    "stop_lon": -21.948475,
    "location_type": 0
  },
  {
    "stop_id": 14001672,
    "stop_name": "Fagrahlíð",
    "stop_lat": 64.059575,
    "stop_lon": -21.929398,
    "location_type": 0
  },
  {
    "stop_id": 14001673,
    "stop_name": "Lækjarskóli",
    "stop_lat": 64.066839,
    "stop_lon": -21.9418,
    "location_type": 0
  },
  {
    "stop_id": 14001674,
    "stop_name": "Ásland III",
    "stop_lat": 64.05701,
    "stop_lon": -21.932122,
    "location_type": 0
  },
  {
    "stop_id": 14001675,
    "stop_name": "Ásland III",
    "stop_lat": 64.056949,
    "stop_lon": -21.932365,
    "location_type": 0
  },
  {
    "stop_id": 14001676,
    "stop_name": "Kaldárselsvegur",
    "stop_lat": 64.05917,
    "stop_lon": -21.937516,
    "location_type": 0
  },
  {
    "stop_id": 14001677,
    "stop_name": "Goðatorg",
    "stop_lat": 64.057846,
    "stop_lon": -21.948962,
    "location_type": 0
  },
  {
    "stop_id": 14001678,
    "stop_name": "Skipalón",
    "stop_lat": 64.062015,
    "stop_lon": -21.972,
    "location_type": 0
  },
  {
    "stop_id": 14001679,
    "stop_name": "Skipalón",
    "stop_lat": 64.062195,
    "stop_lon": -21.972034,
    "location_type": 0
  },
  {
    "stop_id": 14001680,
    "stop_name": "Álfholt",
    "stop_lat": 64.05656,
    "stop_lon": -21.978164,
    "location_type": 0
  },
  {
    "stop_id": 14001681,
    "stop_name": "Miklaholt",
    "stop_lat": 64.058947,
    "stop_lon": -21.988155,
    "location_type": 0
  },
  {
    "stop_id": 14001682,
    "stop_name": "Fagrahlíð",
    "stop_lat": 64.059652,
    "stop_lon": -21.929459,
    "location_type": 0
  },
  {
    "stop_id": 14001684,
    "stop_name": "Birkihlíð",
    "stop_lat": 64.062704,
    "stop_lon": -21.934502,
    "location_type": 0
  },
  {
    "stop_id": 14001685,
    "stop_name": "Setbergsskóli",
    "stop_lat": 64.065152,
    "stop_lon": -21.93409,
    "location_type": 0
  },
  {
    "stop_id": 14001686,
    "stop_name": "Bátaskýlin við Lónsbraut",
    "stop_lat": 64.059424,
    "stop_lon": -21.983909,
    "location_type": 0
  },
  {
    "stop_id": 14001687,
    "stop_name": "Ásvallalaug",
    "stop_lat": 64.052513,
    "stop_lon": -21.973977,
    "location_type": 0
  },
  {
    "stop_id": 14001688,
    "stop_name": "Berghella",
    "stop_lat": 64.045553,
    "stop_lon": -21.991903,
    "location_type": 0
  },
  {
    "stop_id": 14001689,
    "stop_name": "Steinhella",
    "stop_lat": 64.047713,
    "stop_lon": -21.994591,
    "location_type": 0
  },
  {
    "stop_id": 14001690,
    "stop_name": "Rauðhella",
    "stop_lat": 64.047181,
    "stop_lon": -22.000596,
    "location_type": 0
  },
  {
    "stop_id": 14001691,
    "stop_name": "Breiðhella",
    "stop_lat": 64.041552,
    "stop_lon": -22.002734,
    "location_type": 0
  },
  {
    "stop_id": 14001692,
    "stop_name": "Álfhella",
    "stop_lat": 64.037009,
    "stop_lon": -22.006027,
    "location_type": 0
  },
  {
    "stop_id": 14001693,
    "stop_name": "Dranghella",
    "stop_lat": 64.037932,
    "stop_lon": -21.99454,
    "location_type": 0
  },
  {
    "stop_id": 14001694,
    "stop_name": "Einhella",
    "stop_lat": 64.04044,
    "stop_lon": -21.992239,
    "location_type": 0
  },
  {
    "stop_id": 14001695,
    "stop_name": "Gjáhella",
    "stop_lat": 64.045661,
    "stop_lon": -22.000308,
    "location_type": 0
  },
  {
    "stop_id": 14001696,
    "stop_name": "Hamranes",
    "stop_lat": 64.04328543517,
    "stop_lon": -21.957624142137,
    "location_type": 0
  },
  {
    "stop_id": 14001697,
    "stop_name": "Skarðshlíð",
    "stop_lat": 64.0436622356166,
    "stop_lon": -21.9567354837356,
    "location_type": 0
  },
  {
    "stop_id": 16031307,
    "stop_name": "Eyvindarstaðavegur",
    "stop_lat": 64.1061277550452,
    "stop_lon": -22.009885198667,
    "location_type": 0
  },
  {
    "stop_id": 16031308,
    "stop_name": "Túngata",
    "stop_lat": 64.109385,
    "stop_lon": -22.012975,
    "location_type": 0
  },
  {
    "stop_id": 16031309,
    "stop_name": "Jörfavegur",
    "stop_lat": 64.114948,
    "stop_lon": -22.005857,
    "location_type": 0
  },
  {
    "stop_id": 16031310,
    "stop_name": "Túngata",
    "stop_lat": 64.109253,
    "stop_lon": -22.012978,
    "location_type": 0
  },
  {
    "stop_id": 16031311,
    "stop_name": "Sjávargata",
    "stop_lat": 64.109517,
    "stop_lon": -22.018227,
    "location_type": 0
  },
  {
    "stop_id": 16031312,
    "stop_name": "Hólmatún",
    "stop_lat": 64.108251,
    "stop_lon": -22.021435,
    "location_type": 0
  },
  {
    "stop_id": 16031313,
    "stop_name": "Mýrarkot",
    "stop_lat": 64.104417,
    "stop_lon": -22.027198,
    "location_type": 0
  },
  {
    "stop_id": 16031314,
    "stop_name": "Klukkuholt",
    "stop_lat": 64.10216,
    "stop_lon": -22.026917,
    "location_type": 0
  },
  {
    "stop_id": 16031315,
    "stop_name": "Höfðabraut",
    "stop_lat": 64.100105,
    "stop_lon": -22.025576,
    "location_type": 0
  },
  {
    "stop_id": 16031317,
    "stop_name": "Brekkuland",
    "stop_lat": 64.100621,
    "stop_lon": -22.019045,
    "location_type": 0
  },
  {
    "stop_id": 16031318,
    "stop_name": "Höfðabraut",
    "stop_lat": 64.100226,
    "stop_lon": -22.025543,
    "location_type": 0
  },
  {
    "stop_id": 16031319,
    "stop_name": "Brekkuland",
    "stop_lat": 64.100562,
    "stop_lon": -22.018891,
    "location_type": 0
  },
  {
    "stop_id": 16031320,
    "stop_name": "Álftanesskóli",
    "stop_lat": 64.102341,
    "stop_lon": -22.017874,
    "location_type": 0
  },
  {
    "stop_id": 16031321,
    "stop_name": "Bessastaðir",
    "stop_lat": 64.102592,
    "stop_lon": -22.009632,
    "location_type": 0
  },
  {
    "stop_id": 16031322,
    "stop_name": "Bessastaðir",
    "stop_lat": 64.1025974321652,
    "stop_lon": -22.0098531589104,
    "location_type": 0
  },
  {
    "stop_id": 16031323,
    "stop_name": "Klukkuholt",
    "stop_lat": 64.102224,
    "stop_lon": -22.02678,
    "location_type": 0
  },
  {
    "stop_id": 16031324,
    "stop_name": "Mýrarkot",
    "stop_lat": 64.104473,
    "stop_lon": -22.027019,
    "location_type": 0
  },
  {
    "stop_id": 16031325,
    "stop_name": "Hólmatún",
    "stop_lat": 64.108264,
    "stop_lon": -22.021144,
    "location_type": 0
  },
  {
    "stop_id": 16031326,
    "stop_name": "Sjávargata",
    "stop_lat": 64.109501,
    "stop_lon": -22.017855,
    "location_type": 0
  },
  {
    "stop_id": 16031327,
    "stop_name": "Eyvindarstaðavegur",
    "stop_lat": 64.106082,
    "stop_lon": -22.009842,
    "location_type": 0
  },
  {
    "stop_id": 16040604,
    "stop_name": "Skálatún",
    "stop_lat": 64.15955,
    "stop_lon": -21.725659,
    "location_type": 0
  },
  {
    "stop_id": 16040606,
    "stop_name": "Klapparhlíð",
    "stop_lat": 64.163149,
    "stop_lon": -21.727952,
    "location_type": 0
  },
  {
    "stop_id": 16040607,
    "stop_name": "Bollatangi",
    "stop_lat": 64.168511,
    "stop_lon": -21.717552,
    "location_type": 0
  },
  {
    "stop_id": 16040608,
    "stop_name": "Brekkutangi",
    "stop_lat": 64.169358,
    "stop_lon": -21.714603,
    "location_type": 0
  },
  {
    "stop_id": 16040609,
    "stop_name": "Álfatangi",
    "stop_lat": 64.1700323065465,
    "stop_lon": -21.7081721206792,
    "location_type": 0
  },
  {
    "stop_id": 16040610,
    "stop_name": "Skeiðholt",
    "stop_lat": 64.1696206480061,
    "stop_lon": -21.6996765174318,
    "location_type": 0
  },
  {
    "stop_id": 16040611,
    "stop_name": "Varmárskóli",
    "stop_lat": 64.169867,
    "stop_lon": -21.692703,
    "location_type": 0
  },
  {
    "stop_id": 16040612,
    "stop_name": "Háholt",
    "stop_lat": 64.167206,
    "stop_lon": -21.694366,
    "location_type": 0
  },
  {
    "stop_id": 16040613,
    "stop_name": "Krikaskóli",
    "stop_lat": 64.163313,
    "stop_lon": -21.687658,
    "location_type": 0
  },
  {
    "stop_id": 16040614,
    "stop_name": "Dælustöðvarvegur",
    "stop_lat": 64.158347,
    "stop_lon": -21.670779,
    "location_type": 0
  },
  {
    "stop_id": 16040615,
    "stop_name": "Reykjabyggð",
    "stop_lat": 64.155738,
    "stop_lon": -21.663995,
    "location_type": 0
  },
  {
    "stop_id": 16040616,
    "stop_name": "Lágafellsskóli",
    "stop_lat": 64.165884,
    "stop_lon": -21.725818,
    "location_type": 0
  },
  {
    "stop_id": 16040617,
    "stop_name": "Reykjavegur",
    "stop_lat": 64.153855,
    "stop_lon": -21.65753,
    "location_type": 0
  },
  {
    "stop_id": 16040618,
    "stop_name": "Dælustöðvarvegur",
    "stop_lat": 64.158349,
    "stop_lon": -21.670577,
    "location_type": 0
  },
  {
    "stop_id": 16040619,
    "stop_name": "Háholt",
    "stop_lat": 64.167237,
    "stop_lon": -21.693797,
    "location_type": 0
  },
  {
    "stop_id": 16040620,
    "stop_name": "FMOS",
    "stop_lat": 64.16593,
    "stop_lon": -21.702089,
    "location_type": 0
  },
  {
    "stop_id": 16040621,
    "stop_name": "Reykjabyggð",
    "stop_lat": 64.1557821174627,
    "stop_lon": -21.6639075700859,
    "location_type": 0
  },
  {
    "stop_id": 16040622,
    "stop_name": "Krikaskóli",
    "stop_lat": 64.164059,
    "stop_lon": -21.689208,
    "location_type": 0
  },
  {
    "stop_id": 16040624,
    "stop_name": "Bæjarás",
    "stop_lat": 64.171424,
    "stop_lon": -21.677768,
    "location_type": 0
  },
  {
    "stop_id": 16040625,
    "stop_name": "Lágafell",
    "stop_lat": 64.1607780403207,
    "stop_lon": -21.7195195069781,
    "location_type": 0
  },
  {
    "stop_id": 16040626,
    "stop_name": "Lágafell",
    "stop_lat": 64.1610835548314,
    "stop_lon": -21.7197697163752,
    "location_type": 0
  },
  {
    "stop_id": 16040634,
    "stop_name": "Varmárskóli",
    "stop_lat": 64.169968,
    "stop_lon": -21.692647,
    "location_type": 0
  },
  {
    "stop_id": 16040635,
    "stop_name": "Skeiðholt",
    "stop_lat": 64.1696530641305,
    "stop_lon": -21.6998814075743,
    "location_type": 0
  },
  {
    "stop_id": 16040636,
    "stop_name": "Álfatangi",
    "stop_lat": 64.170266,
    "stop_lon": -21.708993,
    "location_type": 0
  },
  {
    "stop_id": 16040637,
    "stop_name": "Brekkutangi",
    "stop_lat": 64.169378,
    "stop_lon": -21.715147,
    "location_type": 0
  },
  {
    "stop_id": 16040638,
    "stop_name": "Bollatangi",
    "stop_lat": 64.168442,
    "stop_lon": -21.717853,
    "location_type": 0
  },
  {
    "stop_id": 16040639,
    "stop_name": "Lágafellsskóli",
    "stop_lat": 64.166032,
    "stop_lon": -21.72591,
    "location_type": 0
  },
  {
    "stop_id": 16040641,
    "stop_name": "Skálatún",
    "stop_lat": 64.159296,
    "stop_lon": -21.725839,
    "location_type": 0
  },
  {
    "stop_id": 16040649,
    "stop_name": "Klapparhlíð",
    "stop_lat": 64.162987,
    "stop_lon": -21.728159,
    "location_type": 0
  },
  {
    "stop_id": 16040650,
    "stop_name": "Völuteigur",
    "stop_lat": 64.160714,
    "stop_lon": -21.68113,
    "location_type": 0
  },
  {
    "stop_id": 16040651,
    "stop_name": "Völuteigur",
    "stop_lat": 64.161111,
    "stop_lon": -21.681836,
    "location_type": 0
  },
  {
    "stop_id": 16040652,
    "stop_name": "Bæjarás",
    "stop_lat": 64.170692,
    "stop_lon": -21.679204,
    "location_type": 0
  },
  {
    "stop_id": 16040653,
    "stop_name": "Leirvogstunga",
    "stop_lat": 64.183772,
    "stop_lon": -21.682118,
    "location_type": 0
  },
  {
    "stop_id": 16040655,
    "stop_name": "Reykjalundur",
    "stop_lat": 64.162784,
    "stop_lon": -21.66382,
    "location_type": 0
  },
  {
    "stop_id": 16040656,
    "stop_name": "Tjaldanes",
    "stop_lat": 64.180301,
    "stop_lon": -21.635617,
    "location_type": 0
  },
  {
    "stop_id": 16040657,
    "stop_name": "Mosfell",
    "stop_lat": 64.180536,
    "stop_lon": -21.619704,
    "location_type": 0
  },
  {
    "stop_id": 16040658,
    "stop_name": "Roðamói",
    "stop_lat": 64.180738,
    "stop_lon": -21.606306,
    "location_type": 0
  },
  {
    "stop_id": 16040659,
    "stop_name": "Laxnes",
    "stop_lat": 64.180337,
    "stop_lon": -21.590415,
    "location_type": 0
  },
  {
    "stop_id": 16040660,
    "stop_name": "Roðamói",
    "stop_lat": 64.18083,
    "stop_lon": -21.606564,
    "location_type": 0
  },
  {
    "stop_id": 16040661,
    "stop_name": "Mosfell",
    "stop_lat": 64.180615,
    "stop_lon": -21.619987,
    "location_type": 0
  },
  {
    "stop_id": 16040662,
    "stop_name": "Tjaldanes",
    "stop_lat": 64.18039,
    "stop_lon": -21.635743,
    "location_type": 0
  },
  {
    "stop_id": 16040663,
    "stop_name": "Álafoss",
    "stop_lat": 64.1674549312659,
    "stop_lon": -21.6825120604026,
    "location_type": 0
  },
  {
    "stop_id": 16040666,
    "stop_name": "Helgafellsskóli",
    "stop_lat": 64.1673578872702,
    "stop_lon": -21.664741757037,
    "location_type": 0
  },
  {
    "stop_id": 16040667,
    "stop_name": "Vefarastræti",
    "stop_lat": 64.1689672717032,
    "stop_lon": -21.6714987268818,
    "location_type": 0
  },
  {
    "stop_id": 16040668,
    "stop_name": "Álafoss",
    "stop_lat": 64.1675276419087,
    "stop_lon": -21.6820541257391,
    "location_type": 0
  },
  {
    "stop_id": 16040669,
    "stop_name": "FMOS",
    "stop_lat": 64.1656954722233,
    "stop_lon": -21.7034970207252,
    "location_type": 0
  },
  {
    "stop_id": 16049670,
    "stop_name": "Laxatunga",
    "stop_lat": 64.1816750307885,
    "stop_lon": -21.6919785651855,
    "location_type": 0
  },
  {
    "stop_id": 16049671,
    "stop_name": "Tungubakkar",
    "stop_lat": 64.1845172585536,
    "stop_lon": -21.694540913184,
    "location_type": 0
  },
  {
    "stop_id": 16049672,
    "stop_name": "Laxatunga",
    "stop_lat": 64.1815937735662,
    "stop_lon": -21.6925666485543,
    "location_type": 0
  },
  {
    "stop_id": 16049673,
    "stop_name": "Bjarkarholt",
    "stop_lat": 64.1661665888489,
    "stop_lon": -21.6966621476578,
    "location_type": 0
  },
  {
    "stop_id": 16049674,
    "stop_name": "Hlégarður",
    "stop_lat": 64.1678556347102,
    "stop_lon": -21.692131527505,
    "location_type": 0
  },
  {
    "stop_id": 16049675,
    "stop_name": "Leirvogstunga",
    "stop_lat": 64.183996,
    "stop_lon": -21.680333,
    "location_type": 0
  },
  {
    "stop_id": 20000003,
    "stop_name": "Fitjar",
    "stop_lat": 63.973625,
    "stop_lon": -22.54305,
    "location_type": 0
  },
  {
    "stop_id": 20000006,
    "stop_name": "Fitjar",
    "stop_lat": 63.973935,
    "stop_lon": -22.543178,
    "location_type": 0
  },
  {
    "stop_id": 20000007,
    "stop_name": "Miðstöð",
    "stop_lat": 63.993969,
    "stop_lon": -22.551521,
    "location_type": 0
  },
  {
    "stop_id": 20000008,
    "stop_name": "Hringbraut / Norðurtún",
    "stop_lat": 64.000792,
    "stop_lon": -22.559937,
    "location_type": 0
  },
  {
    "stop_id": 20000010,
    "stop_name": "Nesvellir",
    "stop_lat": 63.991154,
    "stop_lon": -22.549142,
    "location_type": 0
  },
  {
    "stop_id": 20000011,
    "stop_name": "Bolafótur",
    "stop_lat": 63.985702,
    "stop_lon": -22.549317,
    "location_type": 0
  },
  {
    "stop_id": 20000012,
    "stop_name": "Steinás",
    "stop_lat": 63.987306,
    "stop_lon": -22.549081,
    "location_type": 0
  },
  {
    "stop_id": 20000013,
    "stop_name": "Njarðvíkurtorg",
    "stop_lat": 63.988328,
    "stop_lon": -22.548869,
    "location_type": 0
  },
  {
    "stop_id": 20000014,
    "stop_name": "Stekkjarkot",
    "stop_lat": 63.972134,
    "stop_lon": -22.530116,
    "location_type": 0
  },
  {
    "stop_id": 20000015,
    "stop_name": "Stekkjarkot",
    "stop_lat": 63.971988,
    "stop_lon": -22.530065,
    "location_type": 0
  },
  {
    "stop_id": 20000016,
    "stop_name": "Steinás",
    "stop_lat": 63.977047,
    "stop_lon": -22.547051,
    "location_type": 0
  },
  {
    "stop_id": 20000017,
    "stop_name": "Bolafótur",
    "stop_lat": 63.985411,
    "stop_lon": -22.549051,
    "location_type": 0
  },
  {
    "stop_id": 20000018,
    "stop_name": "Njarðvíkurtorg",
    "stop_lat": 63.987696,
    "stop_lon": -22.548561,
    "location_type": 0
  },
  {
    "stop_id": 20000020,
    "stop_name": "Fjölbrautaskóli Suðurnesja / FS",
    "stop_lat": 63.996435,
    "stop_lon": -22.562531,
    "location_type": 0
  },
  {
    "stop_id": 20000021,
    "stop_name": "Holtaskóli",
    "stop_lat": 63.99847,
    "stop_lon": -22.562761,
    "location_type": 0
  },
  {
    "stop_id": 20000022,
    "stop_name": "Hringbraut / Norðurtún",
    "stop_lat": 64.00089,
    "stop_lon": -22.559641,
    "location_type": 0
  },
  {
    "stop_id": 20000024,
    "stop_name": "Tjarnarhverfi",
    "stop_lat": 63.969848,
    "stop_lon": -22.513746,
    "location_type": 0
  },
  {
    "stop_id": 20000025,
    "stop_name": "Tjarnarhverfi",
    "stop_lat": 63.968518,
    "stop_lon": -22.514284,
    "location_type": 0
  },
  {
    "stop_id": 20000026,
    "stop_name": "Kirkjuvogur",
    "stop_lat": 63.934303,
    "stop_lon": -22.687508,
    "location_type": 0
  },
  {
    "stop_id": 20000027,
    "stop_name": "Landnámsbærinn",
    "stop_lat": 63.935349,
    "stop_lon": -22.685721,
    "location_type": 0
  },
  {
    "stop_id": 20000028,
    "stop_name": "Djúpivogur",
    "stop_lat": 63.933274,
    "stop_lon": -22.682975,
    "location_type": 0
  },
  {
    "stop_id": 20000029,
    "stop_name": "Seljavogur",
    "stop_lat": 63.933638,
    "stop_lon": -22.680521,
    "location_type": 0
  },
  {
    "stop_id": 20000033,
    "stop_name": "Eldey",
    "stop_lat": 63.967085,
    "stop_lon": -22.581452,
    "location_type": 0
  },
  {
    "stop_id": 20000034,
    "stop_name": "Fjörheimar",
    "stop_lat": 63.973134,
    "stop_lon": -22.580261,
    "location_type": 0
  },
  {
    "stop_id": 20000036,
    "stop_name": "Álsvellir",
    "stop_lat": 64.00289,
    "stop_lon": -22.57961,
    "location_type": 0
  },
  {
    "stop_id": 20000041,
    "stop_name": "Keilir",
    "stop_lat": 63.969351,
    "stop_lon": -22.570984,
    "location_type": 0
  },
  {
    "stop_id": 20000042,
    "stop_name": "Keilisbraut",
    "stop_lat": 63.97147,
    "stop_lon": -22.575254,
    "location_type": 0
  },
  {
    "stop_id": 20000045,
    "stop_name": "Bogabraut",
    "stop_lat": 63.972781,
    "stop_lon": -22.56637,
    "location_type": 0
  },
  {
    "stop_id": 20000047,
    "stop_name": "Grænásbraut",
    "stop_lat": 63.975469,
    "stop_lon": -22.565975,
    "location_type": 0
  },
  {
    "stop_id": 20000049,
    "stop_name": "Skógartorg",
    "stop_lat": 63.971999,
    "stop_lon": -22.558921,
    "location_type": 0
  },
  {
    "stop_id": 20000051,
    "stop_name": "Grænás",
    "stop_lat": 63.981577,
    "stop_lon": -22.557891,
    "location_type": 0
  },
  {
    "stop_id": 20000053,
    "stop_name": "Ólafslundur",
    "stop_lat": 63.990053,
    "stop_lon": -22.554063,
    "location_type": 0
  },
  {
    "stop_id": 20000057,
    "stop_name": "Hjallavegur (Reykjanesbær)",
    "stop_lat": 63.989424,
    "stop_lon": -22.550978,
    "location_type": 0
  },
  {
    "stop_id": 20000058,
    "stop_name": "Krossmói",
    "stop_lat": 63.993639,
    "stop_lon": -22.549056,
    "location_type": 0
  },
  {
    "stop_id": 20000059,
    "stop_name": "Reykjavíkurtorg",
    "stop_lat": 63.99498,
    "stop_lon": -22.550085,
    "location_type": 0
  },
  {
    "stop_id": 20000060,
    "stop_name": "Vatnsholt",
    "stop_lat": 64.000254,
    "stop_lon": -22.576353,
    "location_type": 0
  },
  {
    "stop_id": 20000061,
    "stop_name": "Baldursgarður",
    "stop_lat": 64.002165,
    "stop_lon": -22.570368,
    "location_type": 0
  },
  {
    "stop_id": 20000063,
    "stop_name": "Heiðarsel",
    "stop_lat": 64.009702,
    "stop_lon": -22.575426,
    "location_type": 0
  },
  {
    "stop_id": 20000064,
    "stop_name": "Heiðarendi",
    "stop_lat": 64.010964,
    "stop_lon": -22.575363,
    "location_type": 0
  },
  {
    "stop_id": 20000067,
    "stop_name": "Aðalgata",
    "stop_lat": 64.003242,
    "stop_lon": -22.564256,
    "location_type": 0
  },
  {
    "stop_id": 20000069,
    "stop_name": "Vesturgata",
    "stop_lat": 64.005994,
    "stop_lon": -22.564646,
    "location_type": 0
  },
  {
    "stop_id": 20000072,
    "stop_name": "Myllubakkaskóli",
    "stop_lat": 64.001117,
    "stop_lon": -22.556697,
    "location_type": 0
  },
  {
    "stop_id": 20000073,
    "stop_name": "Hornbjarg",
    "stop_lat": 64.002764,
    "stop_lon": -22.558661,
    "location_type": 0
  },
  {
    "stop_id": 20000087,
    "stop_name": "Stekkjargata",
    "stop_lat": 63.973027,
    "stop_lon": -22.522569,
    "location_type": 0
  },
  {
    "stop_id": 20000090,
    "stop_name": "Akurskóli",
    "stop_lat": 63.974372,
    "stop_lon": -22.512978,
    "location_type": 0
  },
  {
    "stop_id": 20000092,
    "stop_name": "Spóatjörn",
    "stop_lat": 63.97499,
    "stop_lon": -22.505276,
    "location_type": 0
  },
  {
    "stop_id": 20000094,
    "stop_name": "Hafdalur",
    "stop_lat": 63.974385,
    "stop_lon": -22.50035,
    "location_type": 0
  },
  {
    "stop_id": 20000095,
    "stop_name": "Unnardalur",
    "stop_lat": 63.972477,
    "stop_lon": -22.495793,
    "location_type": 0
  },
  {
    "stop_id": 20000096,
    "stop_name": "Aspardalur",
    "stop_lat": 63.97101,
    "stop_lon": -22.490074,
    "location_type": 0
  },
  {
    "stop_id": 20000098,
    "stop_name": "Keilir",
    "stop_lat": 63.96946,
    "stop_lon": -22.571307,
    "location_type": 0
  },
  {
    "stop_id": 20000099,
    "stop_name": "Grænás",
    "stop_lat": 63.981447,
    "stop_lon": -22.558577,
    "location_type": 0
  },
  {
    "stop_id": 20000100,
    "stop_name": "Heiðargarður",
    "stop_lat": 64.004759,
    "stop_lon": -22.57717,
    "location_type": 0
  },
  {
    "stop_id": 20000101,
    "stop_name": "Heiðarskóli",
    "stop_lat": 64.006563,
    "stop_lon": -22.575019,
    "location_type": 0
  },
  {
    "stop_id": 20000110,
    "stop_name": "KEF - Airport",
    "stop_lat": 63.9970686450498,
    "stop_lon": -22.628119,
    "location_type": 0
  },
  {
    "stop_id": 20000118,
    "stop_name": "Akurskóli",
    "stop_lat": 63.974507,
    "stop_lon": -22.512817,
    "location_type": 0
  },
  {
    "stop_id": 20000128,
    "stop_name": "Bogabraut",
    "stop_lat": 63.9722,
    "stop_lon": -22.565779,
    "location_type": 0
  },
  {
    "stop_id": 20000132,
    "stop_name": "Hringbraut / Melteigur",
    "stop_lat": 64.005568,
    "stop_lon": -22.565461,
    "location_type": 0
  },
  {
    "stop_id": 20000133,
    "stop_name": "Hringbraut / Knattspyrnuvöllur",
    "stop_lat": 63.9983377440799,
    "stop_lon": -22.5565331531079,
    "location_type": 0
  },
  {
    "stop_id": 20000134,
    "stop_name": "Hringbraut / Knattspyrnuvöllur",
    "stop_lat": 63.9983712228349,
    "stop_lon": -22.5564066411808,
    "location_type": 0
  },
  {
    "stop_id": 20000135,
    "stop_name": "Hringbraut / Melteigur",
    "stop_lat": 64.006591,
    "stop_lon": -22.565913,
    "location_type": 0
  },
  {
    "stop_id": 20000201,
    "stop_name": "Geirdalur",
    "stop_lat": 63.971422,
    "stop_lon": -22.481774,
    "location_type": 0
  },
  {
    "stop_id": 20000204,
    "stop_name": "Spóatjörn",
    "stop_lat": 63.975008,
    "stop_lon": -22.506048,
    "location_type": 0
  },
  {
    "stop_id": 20000247,
    "stop_name": "Hafdalur",
    "stop_lat": 63.974637,
    "stop_lon": -22.500403,
    "location_type": 0
  },
  {
    "stop_id": 20000248,
    "stop_name": "Stekkjargata",
    "stop_lat": 63.973284,
    "stop_lon": -22.521812,
    "location_type": 0
  },
  {
    "stop_id": 20000250,
    "stop_name": "Reykjaneshöll",
    "stop_lat": 63.994958,
    "stop_lon": -22.555162,
    "location_type": 0
  },
  {
    "stop_id": 20000251,
    "stop_name": "Skólavegur",
    "stop_lat": 63.995951,
    "stop_lon": -22.567352,
    "location_type": 0
  },
  {
    "stop_id": 20000252,
    "stop_name": "Kirkjuvegur",
    "stop_lat": 64.004656,
    "stop_lon": -22.560814,
    "location_type": 0
  },
  {
    "stop_id": 20000253,
    "stop_name": "Holtaskóli",
    "stop_lat": 63.998574,
    "stop_lon": -22.563158,
    "location_type": 0
  },
  {
    "stop_id": 20000254,
    "stop_name": "Skólavegur",
    "stop_lat": 63.99602,
    "stop_lon": -22.568029,
    "location_type": 0
  },
  {
    "stop_id": 20000255,
    "stop_name": "Reykjaneshöll",
    "stop_lat": 63.994811,
    "stop_lon": -22.555116,
    "location_type": 0
  },
  {
    "stop_id": 20000256,
    "stop_name": "Steinás",
    "stop_lat": 63.977175,
    "stop_lon": -22.547549,
    "location_type": 0
  },
  {
    "stop_id": 20000258,
    "stop_name": "Skógarbraut",
    "stop_lat": 63.972223,
    "stop_lon": -22.552513,
    "location_type": 0
  },
  {
    "stop_id": 20000259,
    "stop_name": "Háaleitisbraut",
    "stop_lat": 63.968071,
    "stop_lon": -22.591481,
    "location_type": 0
  },
  {
    "stop_id": 20000260,
    "stop_name": "Flugbraut",
    "stop_lat": 63.972241,
    "stop_lon": -22.588432,
    "location_type": 0
  },
  {
    "stop_id": 20000261,
    "stop_name": "Miðstöð",
    "stop_lat": 63.993969,
    "stop_lon": -22.551521,
    "location_type": 0
  },
  {
    "stop_id": 20000262,
    "stop_name": "Unnardalur",
    "stop_lat": 63.9726,
    "stop_lon": -22.4957,
    "location_type": 0
  },
  {
    "stop_id": 20000609,
    "stop_name": "Aspardalur",
    "stop_lat": 63.971153,
    "stop_lon": -22.490191,
    "location_type": 0
  },
  {
    "stop_id": 23000001,
    "stop_name": "Grindavík - Aðalbraut",
    "stop_lat": 63.843765,
    "stop_lon": -22.435763,
    "location_type": 0
  },
  {
    "stop_id": 23000002,
    "stop_name": "Lögreglustöðin Grindavík",
    "stop_lat": 63.8394590907833,
    "stop_lon": -22.4378256077291,
    "location_type": 0
  },
  {
    "stop_id": 25030001,
    "stop_name": "Íþróttamiðstöðin Sandgerði",
    "stop_lat": 64.033948,
    "stop_lon": -22.700544,
    "location_type": 0
  },
  {
    "stop_id": 25030002,
    "stop_name": "Varðan",
    "stop_lat": 64.038352,
    "stop_lon": -22.704308,
    "location_type": 0
  },
  {
    "stop_id": 25030003,
    "stop_name": "Þekkingarsetur Suðurnesja",
    "stop_lat": 64.0410853226981,
    "stop_lon": -22.7122089563306,
    "location_type": 0
  },
  {
    "stop_id": 25040002,
    "stop_name": "Pósthúsið Garði / Garður",
    "stop_lat": 64.069799,
    "stop_lon": -22.651014,
    "location_type": 0
  },
  {
    "stop_id": 25040005,
    "stop_name": "Nýjaland",
    "stop_lat": 64.075932,
    "stop_lon": -22.668548,
    "location_type": 0
  },
  {
    "stop_id": 25040006,
    "stop_name": "Garðvangur",
    "stop_lat": 64.0720646878747,
    "stop_lon": -22.6573187676109,
    "location_type": 0
  },
  {
    "stop_id": 25040007,
    "stop_name": "Garðvangur",
    "stop_lat": 64.0721529,
    "stop_lon": -22.65728441,
    "location_type": 0
  },
  {
    "stop_id": 25040008,
    "stop_name": "Vellir",
    "stop_lat": 64.0642510400643,
    "stop_lon": -22.6398019094077,
    "location_type": 0
  },
  {
    "stop_id": 25040009,
    "stop_name": "Vellir",
    "stop_lat": 64.0642880690852,
    "stop_lon": -22.639762033331,
    "location_type": 0
  },
  {
    "stop_id": 25060001,
    "stop_name": "Grindavíkurafleggjari",
    "stop_lat": 63.96244,
    "stop_lon": -22.42051,
    "location_type": 0
  },
  {
    "stop_id": 25060002,
    "stop_name": "Vogaafleggjari",
    "stop_lat": 63.975115,
    "stop_lon": -22.359635,
    "location_type": 0
  },
  {
    "stop_id": 25060003,
    "stop_name": "Sveitarfélagið Vogar",
    "stop_lat": 63.982788,
    "stop_lon": -22.379973,
    "location_type": 0
  },
  {
    "stop_id": 25060005,
    "stop_name": "Vogaafleggjari",
    "stop_lat": 63.9736092996408,
    "stop_lon": -22.3576843410923,
    "location_type": 0
  },
  {
    "stop_id": 30001807,
    "stop_name": "Garðabraut",
    "stop_lat": 64.319621,
    "stop_lon": -22.063736,
    "location_type": 0
  },
  {
    "stop_id": 30001808,
    "stop_name": "Bæjarskrifstofan",
    "stop_lat": 64.320347,
    "stop_lon": -22.069842,
    "location_type": 0
  },
  {
    "stop_id": 30001809,
    "stop_name": "Kirkjubraut / Stillholt",
    "stop_lat": 64.321487,
    "stop_lon": -22.075413,
    "location_type": 0
  },
  {
    "stop_id": 30001810,
    "stop_name": "Akratorg",
    "stop_lat": 64.31702,
    "stop_lon": -22.083791,
    "location_type": 0
  },
  {
    "stop_id": 30001811,
    "stop_name": "Kirkjubraut / Stillholt",
    "stop_lat": 64.321424,
    "stop_lon": -22.074951,
    "location_type": 0
  },
  {
    "stop_id": 30001812,
    "stop_name": "Bæjarskrifstofan",
    "stop_lat": 64.320495,
    "stop_lon": -22.070502,
    "location_type": 0
  },
  {
    "stop_id": 30001813,
    "stop_name": "Garðabraut",
    "stop_lat": 64.319543,
    "stop_lon": -22.063943,
    "location_type": 0
  },
  {
    "stop_id": 30001822,
    "stop_name": "Þjóðbraut",
    "stop_lat": 64.326607442924,
    "stop_lon": -22.0547478363332,
    "location_type": 0
  },
  {
    "stop_id": 30001823,
    "stop_name": "Innnesvegur",
    "stop_lat": 64.319885,
    "stop_lon": -22.059071,
    "location_type": 0
  },
  {
    "stop_id": 30001824,
    "stop_name": "Innnesvegur",
    "stop_lat": 64.320122,
    "stop_lon": -22.059034,
    "location_type": 0
  },
  {
    "stop_id": 30001825,
    "stop_name": "Þjóðbraut",
    "stop_lat": 64.3266320953141,
    "stop_lon": -22.0541501240127,
    "location_type": 0
  },
  {
    "stop_id": 30001827,
    "stop_name": "Bresaflöt",
    "stop_lat": 64.322727,
    "stop_lon": -22.057072,
    "location_type": 0
  },
  {
    "stop_id": 30001828,
    "stop_name": "Bresaflöt",
    "stop_lat": 64.322708,
    "stop_lon": -22.05672,
    "location_type": 0
  },
  {
    "stop_id": 31770001,
    "stop_name": "Stykkishólmur - höfnin",
    "stop_lat": 65.077996,
    "stop_lon": -22.72399,
    "location_type": 0
  },
  {
    "stop_id": 31770002,
    "stop_name": "Stykkishólmur - Olís",
    "stop_lat": 65.072023,
    "stop_lon": -22.733308,
    "location_type": 0
  },
  {
    "stop_id": 35111819,
    "stop_name": "Melahverfi",
    "stop_lat": 64.38244,
    "stop_lon": -21.849571,
    "location_type": 0
  },
  {
    "stop_id": 36091900,
    "stop_name": "Borgarnes",
    "stop_lat": 64.54366,
    "stop_lon": -21.911567,
    "location_type": 0
  },
  {
    "stop_id": 36091901,
    "stop_name": "Bifröst",
    "stop_lat": 64.766313,
    "stop_lon": -21.552072,
    "location_type": 0
  },
  {
    "stop_id": 36091902,
    "stop_name": "Hvanneyri",
    "stop_lat": 64.563512,
    "stop_lon": -21.760036,
    "location_type": 0
  },
  {
    "stop_id": 36091903,
    "stop_name": "Kleppjárnsreykir",
    "stop_lat": 64.655831,
    "stop_lon": -21.403658,
    "location_type": 0
  },
  {
    "stop_id": 36091904,
    "stop_name": "Reykholt",
    "stop_lat": 64.664498,
    "stop_lon": -21.294091,
    "location_type": 0
  },
  {
    "stop_id": 36091906,
    "stop_name": "Baula",
    "stop_lat": 64.674734,
    "stop_lon": -21.666195,
    "location_type": 0
  },
  {
    "stop_id": 36091907,
    "stop_name": "Íþróttamiðstöðin",
    "stop_lat": 64.5402084852402,
    "stop_lon": -21.921574032679,
    "location_type": 0
  },
  {
    "stop_id": 36091908,
    "stop_name": "Varmalandsskóli",
    "stop_lat": 64.689536,
    "stop_lon": -21.593357,
    "location_type": 0
  },
  {
    "stop_id": 37090001,
    "stop_name": "Grundarfjörður",
    "stop_lat": 64.925097,
    "stop_lon": -23.260496,
    "location_type": 0
  },
  {
    "stop_id": 37100001,
    "stop_name": "Vatnaleið",
    "stop_lat": 64.9657155788255,
    "stop_lon": -22.8892991922126,
    "location_type": 0
  },
  {
    "stop_id": 37130001,
    "stop_name": "Vegamót",
    "stop_lat": 64.849237,
    "stop_lon": -22.733502,
    "location_type": 0
  },
  {
    "stop_id": 37140001,
    "stop_name": "Ólafsvík",
    "stop_lat": 64.893979,
    "stop_lon": -23.704382,
    "location_type": 0
  },
  {
    "stop_id": 37140002,
    "stop_name": "Rif",
    "stop_lat": 64.921473,
    "stop_lon": -23.829734,
    "location_type": 0
  },
  {
    "stop_id": 37140003,
    "stop_name": "Hellissandur",
    "stop_lat": 64.917249,
    "stop_lon": -23.883747,
    "location_type": 0
  },
  {
    "stop_id": 38110001,
    "stop_name": "Búðardalur",
    "stop_lat": 65.108063,
    "stop_lon": -21.763202,
    "location_type": 0
  },
  {
    "stop_id": 38110002,
    "stop_name": "Skriðuland",
    "stop_lat": 65.3821852089881,
    "stop_lon": -21.8762267930329,
    "location_type": 0
  },
  {
    "stop_id": 45020001,
    "stop_name": "Króksfjarðarnes",
    "stop_lat": 65.45467,
    "stop_lon": -21.923182,
    "location_type": 0
  },
  {
    "stop_id": 45020004,
    "stop_name": "Króksfjarðarnes",
    "stop_lat": 65.4546979433328,
    "stop_lon": -21.9240412068599,
    "location_type": 0
  },
  {
    "stop_id": 49080001,
    "stop_name": "Staðarskáli",
    "stop_lat": 65.144715,
    "stop_lon": -21.083616,
    "location_type": 0
  },
  {
    "stop_id": 49110001,
    "stop_name": "Hólmavík - Kaupfélag",
    "stop_lat": 65.700898,
    "stop_lon": -21.685735,
    "location_type": 0
  },
  {
    "stop_id": 52000001,
    "stop_name": "Sauðárkrókur - N1",
    "stop_lat": 65.740862,
    "stop_lon": -19.637706,
    "location_type": 0
  },
  {
    "stop_id": 52000002,
    "stop_name": "Varmahlíð",
    "stop_lat": 65.553491,
    "stop_lon": -19.446279,
    "location_type": 0
  },
  {
    "stop_id": 55080001,
    "stop_name": "Hvammstangavegur",
    "stop_lat": 65.3524758007671,
    "stop_lon": -20.8844365209368,
    "location_type": 0
  },
  {
    "stop_id": 55080003,
    "stop_name": "Víðigerði",
    "stop_lat": 65.381,
    "stop_lon": -20.645,
    "location_type": 0
  },
  {
    "stop_id": 56040001,
    "stop_name": "Blönduós",
    "stop_lat": 65.659872,
    "stop_lon": -20.2769,
    "location_type": 0
  },
  {
    "stop_id": 56110001,
    "stop_name": "Skagaströnd",
    "stop_lat": 65.8242363570201,
    "stop_lon": -20.300123841206,
    "location_type": 0
  },
  {
    "stop_id": 60000001,
    "stop_name": "Miðbær",
    "stop_lat": 65.683053,
    "stop_lon": -18.09,
    "location_type": 0
  },
  {
    "stop_id": 60000007,
    "stop_name": "Þórunnarstræti / MA",
    "stop_lat": 65.676412,
    "stop_lon": -18.098052,
    "location_type": 0
  },
  {
    "stop_id": 60000009,
    "stop_name": "Þórunnarstræti / Hlíð",
    "stop_lat": 65.675047,
    "stop_lon": -18.097684,
    "location_type": 0
  },
  {
    "stop_id": 60000010,
    "stop_name": "Þórunnarstræti / Sjúkrahús",
    "stop_lat": 65.673714,
    "stop_lon": -18.096709,
    "location_type": 0
  },
  {
    "stop_id": 60000011,
    "stop_name": "Þórunnarstræti / Sjúkrahús",
    "stop_lat": 65.673563,
    "stop_lon": -18.097146,
    "location_type": 0
  },
  {
    "stop_id": 60000012,
    "stop_name": "Þórunnarstræti / Búðartröð",
    "stop_lat": 65.67051,
    "stop_lon": -18.095514,
    "location_type": 0
  },
  {
    "stop_id": 60000013,
    "stop_name": "Þórunnarstræti / Lækjargata",
    "stop_lat": 65.668507,
    "stop_lon": -18.095915,
    "location_type": 0
  },
  {
    "stop_id": 60000015,
    "stop_name": "Naustabraut / Krókeyrarnöf",
    "stop_lat": 65.664222,
    "stop_lon": -18.090241,
    "location_type": 0
  },
  {
    "stop_id": 60000019,
    "stop_name": "Naustagata / Vallartún",
    "stop_lat": 65.661674,
    "stop_lon": -18.094439,
    "location_type": 0
  },
  {
    "stop_id": 60000020,
    "stop_name": "Naustagata / Vallartún",
    "stop_lat": 65.66135,
    "stop_lon": -18.09669,
    "location_type": 0
  },
  {
    "stop_id": 60000021,
    "stop_name": "Kjarnagata / Sómatún",
    "stop_lat": 65.662827,
    "stop_lon": -18.099084,
    "location_type": 0
  },
  {
    "stop_id": 60000022,
    "stop_name": "Kjarnagata / Sómatún",
    "stop_lat": 65.662609,
    "stop_lon": -18.099091,
    "location_type": 0
  },
  {
    "stop_id": 60000023,
    "stop_name": "Naustaskóli",
    "stop_lat": 65.665331,
    "stop_lon": -18.101314,
    "location_type": 0
  },
  {
    "stop_id": 60000024,
    "stop_name": "Naustaskóli",
    "stop_lat": 65.665231,
    "stop_lon": -18.101313,
    "location_type": 0
  },
  {
    "stop_id": 60000027,
    "stop_name": "Kjarnagata / Bónus",
    "stop_lat": 65.668767,
    "stop_lon": -18.108311,
    "location_type": 0
  },
  {
    "stop_id": 60000028,
    "stop_name": "Kjarnagata / Ásatún",
    "stop_lat": 65.668827,
    "stop_lon": -18.108455,
    "location_type": 0
  },
  {
    "stop_id": 60000029,
    "stop_name": "Mýrarvegur / Hringteigur",
    "stop_lat": 65.669796,
    "stop_lon": -18.101431,
    "location_type": 0
  },
  {
    "stop_id": 60000030,
    "stop_name": "Mýrarvegur / Hringteigur",
    "stop_lat": 65.669739,
    "stop_lon": -18.101614,
    "location_type": 0
  },
  {
    "stop_id": 60000031,
    "stop_name": "Mýrarvegur / Verkmenntaskóli",
    "stop_lat": 65.671948,
    "stop_lon": -18.104293,
    "location_type": 0
  },
  {
    "stop_id": 60000032,
    "stop_name": "Mýrarvegur / Verkmenntaskóli",
    "stop_lat": 65.672619,
    "stop_lon": -18.104441,
    "location_type": 0
  },
  {
    "stop_id": 60000035,
    "stop_name": "Skógarlundur / Birkilundur",
    "stop_lat": 65.6743,
    "stop_lon": -18.1074,
    "location_type": 0
  },
  {
    "stop_id": 60000037,
    "stop_name": "Skógarlundur / Hlíðarlundur",
    "stop_lat": 65.673676,
    "stop_lon": -18.115512,
    "location_type": 0
  },
  {
    "stop_id": 60000038,
    "stop_name": "Skógarlundur / Hjallalundur",
    "stop_lat": 65.674142,
    "stop_lon": -18.119973,
    "location_type": 0
  },
  {
    "stop_id": 60000039,
    "stop_name": "Skógarlundur / Hjallalundur",
    "stop_lat": 65.673827,
    "stop_lon": -18.118833,
    "location_type": 0
  },
  {
    "stop_id": 60000040,
    "stop_name": "Skógarlundur / Hrísalundur",
    "stop_lat": 65.676372,
    "stop_lon": -18.122134,
    "location_type": 0
  },
  {
    "stop_id": 60000041,
    "stop_name": "Skógarlundur / Furulundur",
    "stop_lat": 65.676092,
    "stop_lon": -18.122203,
    "location_type": 0
  },
  {
    "stop_id": 60000042,
    "stop_name": "Þingvallastræti / Hrísalundur",
    "stop_lat": 65.67796,
    "stop_lon": -18.118367,
    "location_type": 0
  },
  {
    "stop_id": 60000043,
    "stop_name": "Þingvallastræti / Grundargerði",
    "stop_lat": 65.678032,
    "stop_lon": -18.119354,
    "location_type": 0
  },
  {
    "stop_id": 60000045,
    "stop_name": "Þingvallastræti / Dalsbraut",
    "stop_lat": 65.678355,
    "stop_lon": -18.112794,
    "location_type": 0
  },
  {
    "stop_id": 60000052,
    "stop_name": "Þórunnarstræti / Hamarstígur",
    "stop_lat": 65.68085,
    "stop_lon": -18.100242,
    "location_type": 0
  },
  {
    "stop_id": 60000053,
    "stop_name": "Þórunnarstrætí / Hamarstígur",
    "stop_lat": 65.681825,
    "stop_lon": -18.100031,
    "location_type": 0
  },
  {
    "stop_id": 60000054,
    "stop_name": "Þórunnarstræti / Lögreglustöð",
    "stop_lat": 65.684553,
    "stop_lon": -18.100572,
    "location_type": 0
  },
  {
    "stop_id": 60000055,
    "stop_name": "Þórunnarstræti / Lögreglustöð",
    "stop_lat": 65.685086,
    "stop_lon": -18.100399,
    "location_type": 0
  },
  {
    "stop_id": 60000056,
    "stop_name": "Glerárgata / Þórunnarstræti",
    "stop_lat": 65.687484,
    "stop_lon": -18.098031,
    "location_type": 0
  },
  {
    "stop_id": 60000057,
    "stop_name": "Drottningarbraut",
    "stop_lat": 65.680149,
    "stop_lon": -18.087338,
    "location_type": 0
  },
  {
    "stop_id": 60000061,
    "stop_name": "Aðalstræti / Duggufjara",
    "stop_lat": 65.668997,
    "stop_lon": -18.085852,
    "location_type": 0
  },
  {
    "stop_id": 60000062,
    "stop_name": "Aðalstræti / Duggufjara",
    "stop_lat": 65.66892,
    "stop_lon": -18.08582,
    "location_type": 0
  },
  {
    "stop_id": 60000063,
    "stop_name": "Aðalstræti / Minjasafn",
    "stop_lat": 65.666318,
    "stop_lon": -18.084971,
    "location_type": 0
  },
  {
    "stop_id": 60000064,
    "stop_name": "Aðalstræti / Minjasafn",
    "stop_lat": 65.666535,
    "stop_lon": -18.084775,
    "location_type": 0
  },
  {
    "stop_id": 60000065,
    "stop_name": "Skautahöll",
    "stop_lat": 65.664106,
    "stop_lon": -18.082991,
    "location_type": 0
  },
  {
    "stop_id": 60000066,
    "stop_name": "Skautahöll",
    "stop_lat": 65.664067,
    "stop_lon": -18.083244,
    "location_type": 0
  },
  {
    "stop_id": 60000067,
    "stop_name": "Miðhúsabraut",
    "stop_lat": 65.661629,
    "stop_lon": -18.084111,
    "location_type": 0
  },
  {
    "stop_id": 60000068,
    "stop_name": "Miðhúsabraut",
    "stop_lat": 65.661222,
    "stop_lon": -18.08483,
    "location_type": 0
  },
  {
    "stop_id": 60000069,
    "stop_name": "Glerárgata / Eiðsvallagata",
    "stop_lat": 65.685509,
    "stop_lon": -18.091164,
    "location_type": 0
  },
  {
    "stop_id": 60000070,
    "stop_name": "Glerárgata / Eyrarvegur",
    "stop_lat": 65.687259,
    "stop_lon": -18.096295,
    "location_type": 0
  },
  {
    "stop_id": 60000071,
    "stop_name": "Borgarbraut / Glerártorg",
    "stop_lat": 65.688442,
    "stop_lon": -18.103093,
    "location_type": 0
  },
  {
    "stop_id": 60000072,
    "stop_name": "Borgarbraut / Glerártorg",
    "stop_lat": 65.688173,
    "stop_lon": -18.103687,
    "location_type": 0
  },
  {
    "stop_id": 60000073,
    "stop_name": "Borgarbraut / Háskóli",
    "stop_lat": 65.687106,
    "stop_lon": -18.120173,
    "location_type": 0
  },
  {
    "stop_id": 60000074,
    "stop_name": "Borgarbraut / Háskóli",
    "stop_lat": 65.687289,
    "stop_lon": -18.122405,
    "location_type": 0
  },
  {
    "stop_id": 60000075,
    "stop_name": "Hlíðarbraut / Borgarbraut",
    "stop_lat": 65.686596,
    "stop_lon": -18.129162,
    "location_type": 0
  },
  {
    "stop_id": 60000076,
    "stop_name": "Merkigil / Kiðagil",
    "stop_lat": 65.684259,
    "stop_lon": -18.130902,
    "location_type": 0
  },
  {
    "stop_id": 60000077,
    "stop_name": "Merkigil / Kiðagil",
    "stop_lat": 65.684187,
    "stop_lon": -18.131765,
    "location_type": 0
  },
  {
    "stop_id": 60000078,
    "stop_name": "Merkigil / Vesturgil",
    "stop_lat": 65.683851,
    "stop_lon": -18.138579,
    "location_type": 0
  },
  {
    "stop_id": 60000079,
    "stop_name": "Merkigil / Vesturgil",
    "stop_lat": 65.683492,
    "stop_lon": -18.138369,
    "location_type": 0
  },
  {
    "stop_id": 60000080,
    "stop_name": "Merkigil / Skuggagil",
    "stop_lat": 65.68549,
    "stop_lon": -18.14048,
    "location_type": 0
  },
  {
    "stop_id": 60000081,
    "stop_name": "Merkigil / Urðargil",
    "stop_lat": 65.687645,
    "stop_lon": -18.141245,
    "location_type": 0
  },
  {
    "stop_id": 60000082,
    "stop_name": "Merkigil / Urðargil",
    "stop_lat": 65.687563,
    "stop_lon": -18.141172,
    "location_type": 0
  },
  {
    "stop_id": 60000083,
    "stop_name": "Bugðusíða / Núpasíða",
    "stop_lat": 65.688269,
    "stop_lon": -18.136218,
    "location_type": 0
  },
  {
    "stop_id": 60000084,
    "stop_name": "Bugðusíða / Vestursíða",
    "stop_lat": 65.688803,
    "stop_lon": -18.135289,
    "location_type": 0
  },
  {
    "stop_id": 60000085,
    "stop_name": "Vestursíða / Lögmannshlíð",
    "stop_lat": 65.689778,
    "stop_lon": -18.138472,
    "location_type": 0
  },
  {
    "stop_id": 60000086,
    "stop_name": "Vestursíða / Lögmannshlíð",
    "stop_lat": 65.689528,
    "stop_lon": -18.137961,
    "location_type": 0
  },
  {
    "stop_id": 60000087,
    "stop_name": "Vestursíða / Brattasíða",
    "stop_lat": 65.691614,
    "stop_lon": -18.14159,
    "location_type": 0
  },
  {
    "stop_id": 60000088,
    "stop_name": "Vestursíða / Brattasíða",
    "stop_lat": 65.691989,
    "stop_lon": -18.141542,
    "location_type": 0
  },
  {
    "stop_id": 60000089,
    "stop_name": "Vestursíða / Bæjarsíða",
    "stop_lat": 65.694333,
    "stop_lon": -18.143371,
    "location_type": 0
  },
  {
    "stop_id": 60000090,
    "stop_name": "Vestursíða / Bæjarsíða",
    "stop_lat": 65.694557,
    "stop_lon": -18.14418,
    "location_type": 0
  },
  {
    "stop_id": 60000091,
    "stop_name": "Miðsíða",
    "stop_lat": 65.69608,
    "stop_lon": -18.14319,
    "location_type": 0
  },
  {
    "stop_id": 60000092,
    "stop_name": "Miðsíða / Móasíða",
    "stop_lat": 65.696066,
    "stop_lon": -18.142001,
    "location_type": 0
  },
  {
    "stop_id": 60000093,
    "stop_name": "Miðsíða / Múlasíða",
    "stop_lat": 65.694974,
    "stop_lon": -18.136863,
    "location_type": 0
  },
  {
    "stop_id": 60000094,
    "stop_name": "Miðsíða / Múlasíða",
    "stop_lat": 65.694808,
    "stop_lon": -18.13657,
    "location_type": 0
  },
  {
    "stop_id": 60000095,
    "stop_name": "Bugðusíða / Bjarg",
    "stop_lat": 65.694203,
    "stop_lon": -18.132513,
    "location_type": 0
  },
  {
    "stop_id": 60000096,
    "stop_name": "Bugðusíða / Bjarg",
    "stop_lat": 65.694296,
    "stop_lon": -18.132572,
    "location_type": 0
  },
  {
    "stop_id": 60000097,
    "stop_name": "Austursíða / Lindarsíða",
    "stop_lat": 65.695,
    "stop_lon": -18.12924,
    "location_type": 0
  },
  {
    "stop_id": 60000098,
    "stop_name": "Austursíða / Lindarsíða",
    "stop_lat": 65.694946,
    "stop_lon": -18.129359,
    "location_type": 0
  },
  {
    "stop_id": 60000103,
    "stop_name": "Skarðshlíð / Sunnuhlíð",
    "stop_lat": 65.691181,
    "stop_lon": -18.126235,
    "location_type": 0
  },
  {
    "stop_id": 60000105,
    "stop_name": "Skarðshlíð / Fosshlíð",
    "stop_lat": 65.689081,
    "stop_lon": -18.124116,
    "location_type": 0
  },
  {
    "stop_id": 60000108,
    "stop_name": "Glerárskóli",
    "stop_lat": 65.68822,
    "stop_lon": -18.117563,
    "location_type": 0
  },
  {
    "stop_id": 60000110,
    "stop_name": "Höfðahlíð / Áshlíð",
    "stop_lat": 65.68837,
    "stop_lon": -18.112498,
    "location_type": 0
  },
  {
    "stop_id": 60000112,
    "stop_name": "Hlíðarból",
    "stop_lat": 65.690419,
    "stop_lon": -18.109798,
    "location_type": 0
  },
  {
    "stop_id": 60000113,
    "stop_name": "Hörgárbraut / Þverholt",
    "stop_lat": 65.693625,
    "stop_lon": -18.114872,
    "location_type": 0
  },
  {
    "stop_id": 60000114,
    "stop_name": "Hörgárbraut / Undirhlíð",
    "stop_lat": 65.691858,
    "stop_lon": -18.109864,
    "location_type": 0
  },
  {
    "stop_id": 60000115,
    "stop_name": "Hörgárbraut / Stórholt",
    "stop_lat": 65.690776,
    "stop_lon": -18.107598,
    "location_type": 0
  },
  {
    "stop_id": 60000116,
    "stop_name": "Hörgárbraut / Stórholt",
    "stop_lat": 65.69093,
    "stop_lon": -18.107199,
    "location_type": 0
  },
  {
    "stop_id": 60000117,
    "stop_name": "Glerárbrú",
    "stop_lat": 65.689287,
    "stop_lon": -18.102869,
    "location_type": 0
  },
  {
    "stop_id": 60000118,
    "stop_name": "Glerárbrú",
    "stop_lat": 65.689223,
    "stop_lon": -18.103407,
    "location_type": 0
  },
  {
    "stop_id": 60000119,
    "stop_name": "Tryggvabraut / Hvannavellir",
    "stop_lat": 65.689801,
    "stop_lon": -18.09744,
    "location_type": 0
  },
  {
    "stop_id": 60000120,
    "stop_name": "Hjalteyrargata / Furuvellir",
    "stop_lat": 65.691337,
    "stop_lon": -18.091652,
    "location_type": 0
  },
  {
    "stop_id": 60000123,
    "stop_name": "Hjalteyrargata / Gránufélagsgata",
    "stop_lat": 65.686749,
    "stop_lon": -18.082842,
    "location_type": 0
  },
  {
    "stop_id": 60000124,
    "stop_name": "Réttarhvammur",
    "stop_lat": 65.679715,
    "stop_lon": -18.131744,
    "location_type": 0
  },
  {
    "stop_id": 60000125,
    "stop_name": "Réttarhvammur",
    "stop_lat": 65.678866,
    "stop_lon": -18.131584,
    "location_type": 0
  },
  {
    "stop_id": 60000126,
    "stop_name": "Þingvallastræti / Pálmholt",
    "stop_lat": 65.677699,
    "stop_lon": -18.12388,
    "location_type": 0
  },
  {
    "stop_id": 60000128,
    "stop_name": "Skógarlundur / Hlíðarlundur",
    "stop_lat": 65.673686,
    "stop_lon": -18.114603,
    "location_type": 0
  },
  {
    "stop_id": 60000129,
    "stop_name": "Mímisbraut / Verkmenntaskóli",
    "stop_lat": 65.672467,
    "stop_lon": -18.103809,
    "location_type": 0
  },
  {
    "stop_id": 60000130,
    "stop_name": "Þingvallastræti / Furulundur",
    "stop_lat": 65.677423,
    "stop_lon": -18.126252,
    "location_type": 0
  },
  {
    "stop_id": 60000132,
    "stop_name": "Hjalteyrargata / Grenivellir",
    "stop_lat": 65.689563,
    "stop_lon": -18.086457,
    "location_type": 0
  },
  {
    "stop_id": 60000137,
    "stop_name": "Þingvallastræti / Byggðavegur",
    "stop_lat": 65.679119,
    "stop_lon": -18.103151,
    "location_type": 0
  },
  {
    "stop_id": 60000139,
    "stop_name": "Kaupvangsstræti",
    "stop_lat": 65.680587,
    "stop_lon": -18.090284,
    "location_type": 0
  },
  {
    "stop_id": 60000140,
    "stop_name": "Hlíðarbraut / Tröllagil",
    "stop_lat": 65.686593,
    "stop_lon": -18.129323,
    "location_type": 0
  },
  {
    "stop_id": 60000141,
    "stop_name": "Glerárgata / Ráðhús",
    "stop_lat": 65.685184,
    "stop_lon": -18.091117,
    "location_type": 0
  },
  {
    "stop_id": 60000142,
    "stop_name": "Tryggvabraut / Slökkvistöð",
    "stop_lat": 65.691062,
    "stop_lon": -18.093708,
    "location_type": 0
  },
  {
    "stop_id": 60000143,
    "stop_name": "Tryggvabraut / Hvannavellir",
    "stop_lat": 65.689918,
    "stop_lon": -18.097514,
    "location_type": 0
  },
  {
    "stop_id": 60000150,
    "stop_name": "Akureyri - Hof",
    "stop_lat": 65.68395,
    "stop_lon": -18.08767,
    "location_type": 0
  },
  {
    "stop_id": 60000151,
    "stop_name": "Hjalteyrargata / Gránufélagsgata",
    "stop_lat": 65.68643,
    "stop_lon": -18.0832,
    "location_type": 0
  },
  {
    "stop_id": 60000152,
    "stop_name": "Hjalteyrargata / Grenivellir",
    "stop_lat": 65.68965,
    "stop_lon": -18.0865,
    "location_type": 0
  },
  {
    "stop_id": 60000153,
    "stop_name": "Skarðshlíð / Undirhlíð",
    "stop_lat": 65.69111,
    "stop_lon": -18.1118,
    "location_type": 0
  },
  {
    "stop_id": 60000154,
    "stop_name": "Skarðshlíð / Boginn",
    "stop_lat": 65.693,
    "stop_lon": -18.1184,
    "location_type": 0
  },
  {
    "stop_id": 60000155,
    "stop_name": "Smárahlíð",
    "stop_lat": 65.69277,
    "stop_lon": -18.1254,
    "location_type": 0
  },
  {
    "stop_id": 60000156,
    "stop_name": "Hlíðarbraut / Austursíða",
    "stop_lat": 65.6948,
    "stop_lon": -18.1255,
    "location_type": 0
  },
  {
    "stop_id": 60000157,
    "stop_name": "Smárahlíð",
    "stop_lat": 65.69275,
    "stop_lon": -18.1255,
    "location_type": 0
  },
  {
    "stop_id": 60000158,
    "stop_name": "Skarðshlíð / Boginn",
    "stop_lat": 65.69296,
    "stop_lon": -18.1185,
    "location_type": 0
  },
  {
    "stop_id": 60000159,
    "stop_name": "Skarðshlíð / Undirhlíð",
    "stop_lat": 65.69095,
    "stop_lon": -18.1115,
    "location_type": 0
  },
  {
    "stop_id": 60000160,
    "stop_name": "Merkigil / Skuggagil",
    "stop_lat": 65.685215,
    "stop_lon": -18.139989,
    "location_type": 0
  },
  {
    "stop_id": 60000161,
    "stop_name": "Dalsbraut / Stóragerði",
    "stop_lat": 65.6804,
    "stop_lon": -18.1159,
    "location_type": 0
  },
  {
    "stop_id": 60000162,
    "stop_name": "Dalsbraut / Klettaborg",
    "stop_lat": 65.68494,
    "stop_lon": -18.1152,
    "location_type": 0
  },
  {
    "stop_id": 60000163,
    "stop_name": "Dalsbraut / Norðurslóð",
    "stop_lat": 65.68426,
    "stop_lon": -18.1158,
    "location_type": 0
  },
  {
    "stop_id": 60000164,
    "stop_name": "Dalsbraut / Stóragerði",
    "stop_lat": 65.67955,
    "stop_lon": -18.1159,
    "location_type": 0
  },
  {
    "stop_id": 60000165,
    "stop_name": "Þingvallastræti / Mýrarvegur",
    "stop_lat": 65.678781,
    "stop_lon": -18.108669,
    "location_type": 0
  },
  {
    "stop_id": 60000166,
    "stop_name": "Þórunnarstræti / Íþróttahöll",
    "stop_lat": 65.67809,
    "stop_lon": -18.09917,
    "location_type": 0
  },
  {
    "stop_id": 60000167,
    "stop_name": "Skógarlundur / Birkilundur",
    "stop_lat": 65.67435,
    "stop_lon": -18.1073,
    "location_type": 0
  },
  {
    "stop_id": 60000168,
    "stop_name": "Naustabraut / Krókeyrarnöf",
    "stop_lat": 65.66406,
    "stop_lon": -18.0899,
    "location_type": 0
  },
  {
    "stop_id": 60000169,
    "stop_name": "Þórunnarstræti / Lækjargata",
    "stop_lat": 65.66857,
    "stop_lon": -18.0957,
    "location_type": 0
  },
  {
    "stop_id": 60000170,
    "stop_name": "Þórunnarstræti / Búðartröð",
    "stop_lat": 65.67141,
    "stop_lon": -18.0958,
    "location_type": 0
  },
  {
    "stop_id": 60000172,
    "stop_name": "Þórunnarstræti / Íþróttahöll",
    "stop_lat": 65.67835,
    "stop_lon": -18.099,
    "location_type": 0
  },
  {
    "stop_id": 60000173,
    "stop_name": "Þingvallastræti / Byggðavegur",
    "stop_lat": 65.67931,
    "stop_lon": -18.1016,
    "location_type": 0
  },
  {
    "stop_id": 60000174,
    "stop_name": "Þingvallastræti / Mýrarvegur",
    "stop_lat": 65.67877,
    "stop_lon": -18.1086,
    "location_type": 0
  },
  {
    "stop_id": 60000175,
    "stop_name": "Hafnarstræti / Aðalstræti",
    "stop_lat": 65.67218,
    "stop_lon": -18.0859,
    "location_type": 0
  },
  {
    "stop_id": 60000176,
    "stop_name": "Hafnarstræti / Aðalstræti",
    "stop_lat": 65.67254,
    "stop_lon": -18.0863,
    "location_type": 0
  },
  {
    "stop_id": 60000177,
    "stop_name": "Drottningarbraut",
    "stop_lat": 65.6801,
    "stop_lon": -18.0872,
    "location_type": 0
  },
  {
    "stop_id": 60000178,
    "stop_name": "Þingvallastræti / Dalsbraut",
    "stop_lat": 65.678262,
    "stop_lon": -18.115904,
    "location_type": 0
  },
  {
    "stop_id": 60000179,
    "stop_name": "Kjarnagata / Naustagata",
    "stop_lat": 65.66117,
    "stop_lon": -18.09893,
    "location_type": 0
  },
  {
    "stop_id": 60000183,
    "stop_name": "Kjarnagata / Jóninnuhagi A",
    "stop_lat": 65.656984,
    "stop_lon": -18.094501,
    "location_type": 0
  },
  {
    "stop_id": 60000184,
    "stop_name": "Kjarnagata / Jóninnuhagi V",
    "stop_lat": 65.656452,
    "stop_lon": -18.097456,
    "location_type": 0
  },
  {
    "stop_id": 60000185,
    "stop_name": "Wilhelmínugata / Nonnahagi N",
    "stop_lat": 65.65661,
    "stop_lon": -18.0905,
    "location_type": 0
  },
  {
    "stop_id": 60000186,
    "stop_name": "Wilhelmínugata / Nonnahagi S",
    "stop_lat": 65.65653,
    "stop_lon": -18.09028,
    "location_type": 0
  },
  {
    "stop_id": 60000187,
    "stop_name": "Naustabraut / Davíðshagi V",
    "stop_lat": 65.659628,
    "stop_lon": -18.090155,
    "location_type": 0
  },
  {
    "stop_id": 60000188,
    "stop_name": "Naustabraut / Davíðshagi A",
    "stop_lat": 65.65982,
    "stop_lon": -18.09021,
    "location_type": 0
  },
  {
    "stop_id": 60000189,
    "stop_name": "Kjarnagata / Geirþrúðarhagi A",
    "stop_lat": 65.659261,
    "stop_lon": -18.096754,
    "location_type": 0
  },
  {
    "stop_id": 60000190,
    "stop_name": "Kjarnagata / Elísabetarhagi",
    "stop_lat": 65.660625,
    "stop_lon": -18.099883,
    "location_type": 0
  },
  {
    "stop_id": 60000191,
    "stop_name": "Kjarnagata / Geirþrúðarhagi V",
    "stop_lat": 65.658408,
    "stop_lon": -18.099526,
    "location_type": 0
  },
  {
    "stop_id": 61000001,
    "stop_name": "Húsavík",
    "stop_lat": 66.046915,
    "stop_lon": -17.343375,
    "location_type": 0
  },
  {
    "stop_id": 61000005,
    "stop_name": "Jökulsá á Fjöllum",
    "stop_lat": 65.626341,
    "stop_lon": -16.17725,
    "location_type": 0
  },
  {
    "stop_id": 62500001,
    "stop_name": "Ólafsfjörður - Aðalgata",
    "stop_lat": 66.07082,
    "stop_lon": -18.655939,
    "location_type": 0
  },
  {
    "stop_id": 62500002,
    "stop_name": "Siglufjörður - Olís",
    "stop_lat": 66.149834,
    "stop_lon": -18.903148,
    "location_type": 0
  },
  {
    "stop_id": 62500003,
    "stop_name": "Siglufjörður - Snorragata suður",
    "stop_lat": 66.142078,
    "stop_lon": -18.915306,
    "location_type": 0
  },
  {
    "stop_id": 62500004,
    "stop_name": "Siglufjörður - Snorragata suður",
    "stop_lat": 66.141952,
    "stop_lon": -18.915041,
    "location_type": 0
  },
  {
    "stop_id": 62500005,
    "stop_name": "Ólafsfjörður - Aðalgata",
    "stop_lat": 66.070939,
    "stop_lon": -18.657531,
    "location_type": 0
  },
  {
    "stop_id": 62500006,
    "stop_name": "Ólafsfjörður - Múlavegur",
    "stop_lat": 66.074536,
    "stop_lon": -18.642085,
    "location_type": 0
  },
  {
    "stop_id": 62500007,
    "stop_name": "Ólafsfjörður - Múlavegur",
    "stop_lat": 66.074606,
    "stop_lon": -18.642297,
    "location_type": 0
  },
  {
    "stop_id": 64000001,
    "stop_name": "Dalvík",
    "stop_lat": 65.966988,
    "stop_lon": -18.529751,
    "location_type": 0
  },
  {
    "stop_id": 65060001,
    "stop_name": "Hjalteyri - Vegamót",
    "stop_lat": 65.758471,
    "stop_lon": -18.232226,
    "location_type": 0
  },
  {
    "stop_id": 65060002,
    "stop_name": "Litli Árskógssandur - Vegamót",
    "stop_lat": 65.928321,
    "stop_lon": -18.364432,
    "location_type": 0
  },
  {
    "stop_id": 66070001,
    "stop_name": "Mývatn - Reykjahlíð",
    "stop_lat": 65.642,
    "stop_lon": -16.911,
    "location_type": 0
  },
  {
    "stop_id": 66070002,
    "stop_name": "Skútustaðir",
    "stop_lat": 65.567,
    "stop_lon": -17.029,
    "location_type": 0
  },
  {
    "stop_id": 66090001,
    "stop_name": "Aðaldalsvegur",
    "stop_lat": 65.886061,
    "stop_lon": -17.437669,
    "location_type": 0
  },